[
  {
    "city": "Luanda",
    "city_ascii": "Luanda",
    "admin_name": "Luanda",
    "lat": "-8.8383",
    "lng": "13.2344",
    "id": "1024949724"
  },
  {
    "city": "Cacuaco",
    "city_ascii": "Cacuaco",
    "admin_name": "Luanda",
    "lat": "-8.8053",
    "lng": "13.2444",
    "id": "1024559448"
  },
  {
    "city": "Cazenga",
    "city_ascii": "Cazenga",
    "admin_name": "Luanda",
    "lat": "-8.8214",
    "lng": "13.2911",
    "id": "1024791607"
  },
  {
    "city": "Lubango",
    "city_ascii": "Lubango",
    "admin_name": "Huíla",
    "lat": "-14.9167",
    "lng": "13.5000",
    "id": "1024669127"
  },
  {
    "city": "Cabinda",
    "city_ascii": "Cabinda",
    "admin_name": "Cabinda",
    "lat": "-5.5600",
    "lng": "12.1900",
    "id": "1024474012"
  },
  {
    "city": "Huambo",
    "city_ascii": "Huambo",
    "admin_name": "Huambo",
    "lat": "-12.7767",
    "lng": "15.7347",
    "id": "1024079828"
  },
  {
    "city": "Malanje",
    "city_ascii": "Malanje",
    "admin_name": "Malanje",
    "lat": "-9.5333",
    "lng": "16.3500",
    "id": "1024774947"
  },
  {
    "city": "Benguela",
    "city_ascii": "Benguela",
    "admin_name": "Benguela",
    "lat": "-12.5500",
    "lng": "13.4167",
    "id": "1024141961"
  },
  {
    "city": "Cuito",
    "city_ascii": "Cuito",
    "admin_name": "Bié",
    "lat": "-12.3833",
    "lng": "16.9333",
    "id": "1024939858"
  },
  {
    "city": "Belas",
    "city_ascii": "Belas",
    "admin_name": "Luanda",
    "lat": "-8.9983",
    "lng": "13.2650",
    "id": "1024196826"
  },
  {
    "city": "Talatona",
    "city_ascii": "Talatona",
    "admin_name": "Luanda",
    "lat": "-8.9167",
    "lng": "13.1833",
    "id": "1024988332"
  },
  {
    "city": "Lobito",
    "city_ascii": "Lobito",
    "admin_name": "Benguela",
    "lat": "-12.3500",
    "lng": "13.5464",
    "id": "1024128946"
  },
  {
    "city": "Saurimo",
    "city_ascii": "Saurimo",
    "admin_name": "Lunda-Sul",
    "lat": "-9.6500",
    "lng": "20.4000",
    "id": "1024326839"
  },
  {
    "city": "Cubal",
    "city_ascii": "Cubal",
    "admin_name": "Benguela",
    "lat": "-13.0333",
    "lng": "14.2500",
    "id": "1024580158"
  },
  {
    "city": "Luena",
    "city_ascii": "Luena",
    "admin_name": "Moxico",
    "lat": "-11.7918",
    "lng": "19.9062",
    "id": "1024283760"
  },
  {
    "city": "Uíge",
    "city_ascii": "Uige",
    "admin_name": "Uíge",
    "lat": "-7.6167",
    "lng": "15.0500",
    "id": "1024666275"
  },
  {
    "city": "Menongue",
    "city_ascii": "Menongue",
    "admin_name": "Cuando Cubango",
    "lat": "-14.6556",
    "lng": "17.6842",
    "id": "1024725650"
  },
  {
    "city": "Vila Teixeira da Silva",
    "city_ascii": "Vila Teixeira da Silva",
    "admin_name": "Huambo",
    "lat": "-12.1958",
    "lng": "15.8556",
    "id": "1024863343"
  },
  {
    "city": "Sumbe",
    "city_ascii": "Sumbe",
    "admin_name": "Cuanza-Sul",
    "lat": "-11.2053",
    "lng": "13.8417",
    "id": "1024297937"
  },
  {
    "city": "Caála",
    "city_ascii": "Caala",
    "admin_name": "Huambo",
    "lat": "-12.8500",
    "lng": "15.5500",
    "id": "1024160241"
  },
  {
    "city": "Gabela",
    "city_ascii": "Gabela",
    "admin_name": "Cuanza-Sul",
    "lat": "-10.8500",
    "lng": "14.3667",
    "id": "1024159015"
  },
  {
    "city": "Matala",
    "city_ascii": "Matala",
    "admin_name": "Huíla",
    "lat": "-14.7306",
    "lng": "15.0367",
    "id": "1024249088"
  },
  {
    "city": "Ndulo",
    "city_ascii": "Ndulo",
    "admin_name": "Huambo",
    "lat": "-11.4833",
    "lng": "15.8333",
    "id": "1024783572"
  },
  {
    "city": "Andulo",
    "city_ascii": "Andulo",
    "admin_name": "Bié",
    "lat": "-11.4926",
    "lng": "16.7035",
    "id": "1024697140"
  },
  {
    "city": "Moçâmedes",
    "city_ascii": "Mocamedes",
    "admin_name": "Namibe",
    "lat": "-15.1953",
    "lng": "12.1508",
    "id": "1024785067"
  },
  {
    "city": "Ganda",
    "city_ascii": "Ganda",
    "admin_name": "Benguela",
    "lat": "-13.0167",
    "lng": "14.6333",
    "id": "1024320952"
  },
  {
    "city": "Uacu Cungo",
    "city_ascii": "Uacu Cungo",
    "admin_name": "Cuanza-Sul",
    "lat": "-11.3583",
    "lng": "15.1194",
    "id": "1024677127"
  },
  {
    "city": "Barra do Dande",
    "city_ascii": "Barra do Dande",
    "admin_name": "Bengo",
    "lat": "-8.4728",
    "lng": "13.3731",
    "id": "1024937810"
  },
  {
    "city": "Soio",
    "city_ascii": "Soio",
    "admin_name": "Zaire",
    "lat": "-6.1333",
    "lng": "12.3667",
    "id": "1024903782"
  },
  {
    "city": "Tchitato",
    "city_ascii": "Tchitato",
    "admin_name": "Lunda-Norte",
    "lat": "-7.3667",
    "lng": "20.8333",
    "id": "1024883433"
  },
  {
    "city": "Chibia",
    "city_ascii": "Chibia",
    "admin_name": "Huíla",
    "lat": "-15.1833",
    "lng": "13.7000",
    "id": "1024017930"
  },
  {
    "city": "Ucu Seles",
    "city_ascii": "Ucu Seles",
    "admin_name": "Cuanza-Sul",
    "lat": "-11.4047",
    "lng": "14.3006",
    "id": "1024868244"
  },
  {
    "city": "Cuango",
    "city_ascii": "Cuango",
    "admin_name": "Lunda-Norte",
    "lat": "-9.1444",
    "lng": "18.0464",
    "id": "1024514740"
  },
  {
    "city": "Mbanza Kongo",
    "city_ascii": "Mbanza Kongo",
    "admin_name": "Zaire",
    "lat": "-6.2678",
    "lng": "14.2481",
    "id": "1024532464"
  },
  {
    "city": "Caluquembe",
    "city_ascii": "Caluquembe",
    "admin_name": "Huíla",
    "lat": "-13.7833",
    "lng": "14.6833",
    "id": "1024240126"
  },
  {
    "city": "Dundo",
    "city_ascii": "Dundo",
    "admin_name": "Lunda-Norte",
    "lat": "-7.3801",
    "lng": "20.8351",
    "id": "1024121799"
  },
  {
    "city": "Catumbela",
    "city_ascii": "Catumbela",
    "admin_name": "Benguela",
    "lat": "-12.4339",
    "lng": "13.5433",
    "id": "1024821574"
  },
  {
    "city": "Cazanga",
    "city_ascii": "Cazanga",
    "admin_name": "Cuanza-Norte",
    "lat": "-9.3000",
    "lng": "14.9500",
    "id": "1024657411"
  },
  {
    "city": "Caluquembe",
    "city_ascii": "Caluquembe",
    "admin_name": "Huíla",
    "lat": "-13.7833",
    "lng": "14.6833",
    "id": "1024346445"
  },
  {
    "city": "Catape",
    "city_ascii": "Catape",
    "admin_name": "Huíla",
    "lat": "-13.7667",
    "lng": "15.0833",
    "id": "1024321158"
  },
  {
    "city": "Caconda",
    "city_ascii": "Caconda",
    "admin_name": "Huíla",
    "lat": "-13.7393",
    "lng": "15.0607",
    "id": "1024042830"
  },
  {
    "city": "Ebo",
    "city_ascii": "Ebo",
    "admin_name": "Cuanza-Sul",
    "lat": "-11.0000",
    "lng": "14.6667",
    "id": "1024334702"
  },
  {
    "city": "Bocoio",
    "city_ascii": "Bocoio",
    "admin_name": "Benguela",
    "lat": "-12.4500",
    "lng": "14.1500",
    "id": "1024922883"
  },
  {
    "city": "Quibala",
    "city_ascii": "Quibala",
    "admin_name": "Cuanza-Sul",
    "lat": "-10.7333",
    "lng": "14.9833",
    "id": "1024007950"
  },
  {
    "city": "Ndalatando",
    "city_ascii": "Ndalatando",
    "admin_name": "Cuanza-Norte",
    "lat": "-9.3000",
    "lng": "14.9167",
    "id": "1024645515"
  },
  {
    "city": "Quipungo",
    "city_ascii": "Quipungo",
    "admin_name": "Huíla",
    "lat": "-14.8167",
    "lng": "14.5500",
    "id": "1024929138"
  },
  {
    "city": "Lucapa",
    "city_ascii": "Lucapa",
    "admin_name": "Lunda-Norte",
    "lat": "-8.4228",
    "lng": "20.7392",
    "id": "1024056286"
  },
  {
    "city": "Maquela do Zombo",
    "city_ascii": "Maquela do Zombo",
    "admin_name": "Uíge",
    "lat": "-6.0500",
    "lng": "15.1167",
    "id": "1024582197"
  },
  {
    "city": "Namacunde",
    "city_ascii": "Namacunde",
    "admin_name": "Cunene",
    "lat": "-17.3000",
    "lng": "15.8500",
    "id": "1024843393"
  },
  {
    "city": "Negage",
    "city_ascii": "Negage",
    "admin_name": "Uíge",
    "lat": "-7.7667",
    "lng": "15.2667",
    "id": "1024978551"
  },
  {
    "city": "Porto Amboim",
    "city_ascii": "Porto Amboim",
    "admin_name": "Cuanza-Sul",
    "lat": "-10.7183",
    "lng": "13.7500",
    "id": "1024818756"
  },
  {
    "city": "Cacula",
    "city_ascii": "Cacula",
    "admin_name": "Huíla",
    "lat": "14.0000",
    "lng": "29.0000",
    "id": "1024048087"
  },
  {
    "city": "Quimbele",
    "city_ascii": "Quimbele",
    "admin_name": "Uíge",
    "lat": "-6.5167",
    "lng": "16.2167",
    "id": "1024357792"
  },
  {
    "city": "Londuimbali",
    "city_ascii": "Londuimbali",
    "admin_name": "Huambo",
    "lat": "-12.2419",
    "lng": "15.3133",
    "id": "1024280825"
  },
  {
    "city": "Chicomba",
    "city_ascii": "Chicomba",
    "admin_name": "Huíla",
    "lat": "-14.1333",
    "lng": "14.9167",
    "id": "1024892795"
  },
  {
    "city": "Chinguar",
    "city_ascii": "Chinguar",
    "admin_name": "Bié",
    "lat": "-12.5500",
    "lng": "16.3333",
    "id": "1024191137"
  },
  {
    "city": "Catabola",
    "city_ascii": "Catabola",
    "admin_name": "Bié",
    "lat": "-12.1167",
    "lng": "17.3000",
    "id": "1024994288"
  },
  {
    "city": "Ondjiva",
    "city_ascii": "Ondjiva",
    "admin_name": "Cunene",
    "lat": "-17.0667",
    "lng": "15.7333",
    "id": "1024504085"
  },
  {
    "city": "Catchiungo",
    "city_ascii": "Catchiungo",
    "admin_name": "Huambo",
    "lat": "-12.5667",
    "lng": "16.2333",
    "id": "1024414170"
  },
  {
    "city": "Cassongue",
    "city_ascii": "Cassongue",
    "admin_name": "Cuanza-Sul",
    "lat": "-11.8333",
    "lng": "15.0000",
    "id": "1024511668"
  },
  {
    "city": "Quilengues",
    "city_ascii": "Quilengues",
    "admin_name": "Huíla",
    "lat": "-14.0814",
    "lng": "14.0931",
    "id": "1024895987"
  },
  {
    "city": "Mungo",
    "city_ascii": "Mungo",
    "admin_name": "Huambo",
    "lat": "-11.6667",
    "lng": "16.1667",
    "id": "1024065318"
  },
  {
    "city": "Balombo",
    "city_ascii": "Balombo",
    "admin_name": "Benguela",
    "lat": "-12.3500",
    "lng": "14.7667",
    "id": "1024251027"
  },
  {
    "city": "Baía Farta",
    "city_ascii": "Baia Farta",
    "admin_name": "Benguela",
    "lat": "-12.6072",
    "lng": "13.1944",
    "id": "1024743438"
  },
  {
    "city": "Ndjamba",
    "city_ascii": "Ndjamba",
    "admin_name": "Huíla",
    "lat": "-14.7000",
    "lng": "16.0667",
    "id": "1024911597"
  },
  {
    "city": "Calandala",
    "city_ascii": "Calandala",
    "admin_name": "Lunda-Norte",
    "lat": "-9.0894",
    "lng": "15.9550",
    "id": "1024525047"
  },
  {
    "city": "Quilenda",
    "city_ascii": "Quilenda",
    "admin_name": "Cuanza-Sul",
    "lat": "-10.6333",
    "lng": "14.3333",
    "id": "1024011632"
  },
  {
    "city": "Caimbambo",
    "city_ascii": "Caimbambo",
    "admin_name": "Benguela",
    "lat": "-12.9000",
    "lng": "14.0833",
    "id": "1024891825"
  },
  {
    "city": "Cambambe",
    "city_ascii": "Cambambe",
    "admin_name": "Cuanza-Norte",
    "lat": "-9.7586",
    "lng": "14.5122",
    "id": "1024312565"
  },
  {
    "city": "Luau",
    "city_ascii": "Luau",
    "admin_name": "Moxico",
    "lat": "-10.7044",
    "lng": "22.2283",
    "id": "1024699465"
  },
  {
    "city": "Conda",
    "city_ascii": "Conda",
    "admin_name": "Cuanza-Sul",
    "lat": "-11.1667",
    "lng": "14.5000",
    "id": "1024402215"
  },
  {
    "city": "Humpata",
    "city_ascii": "Humpata",
    "admin_name": "Huíla",
    "lat": "-15.0000",
    "lng": "13.3333",
    "id": "1024063224"
  },
  {
    "city": "Chongoroi",
    "city_ascii": "Chongoroi",
    "admin_name": "Benguela",
    "lat": "-13.5667",
    "lng": "13.9500",
    "id": "1024105319"
  },
  {
    "city": "Longonjo",
    "city_ascii": "Longonjo",
    "admin_name": "Huambo",
    "lat": "-12.9067",
    "lng": "15.1864",
    "id": "1024081092"
  },
  {
    "city": "Mussende",
    "city_ascii": "Mussende",
    "admin_name": "Cuanza-Sul",
    "lat": "-10.5103",
    "lng": "16.0107",
    "id": "1024902618"
  },
  {
    "city": "Chibemba",
    "city_ascii": "Chibemba",
    "admin_name": "Huíla",
    "lat": "15.0000",
    "lng": "46.0000",
    "id": "1024009942"
  },
  {
    "city": "Kuvango",
    "city_ascii": "Kuvango",
    "admin_name": "Huíla",
    "lat": "-14.4667",
    "lng": "16.3000",
    "id": "1024458480"
  },
  {
    "city": "Chitembo",
    "city_ascii": "Chitembo",
    "admin_name": "Bié",
    "lat": "-13.5138",
    "lng": "16.7541",
    "id": "1024103269"
  },
  {
    "city": "Chitemo",
    "city_ascii": "Chitemo",
    "admin_name": "Bié",
    "lat": "-13.5167",
    "lng": "16.7667",
    "id": "1024290778"
  },
  {
    "city": "Caxito",
    "city_ascii": "Caxito",
    "admin_name": "Bengo",
    "lat": "-8.5800",
    "lng": "13.6642",
    "id": "1024050171"
  },
  {
    "city": "Cunhinga",
    "city_ascii": "Cunhinga",
    "admin_name": "Bié",
    "lat": "-12.2333",
    "lng": "16.7833",
    "id": "1024704961"
  },
  {
    "city": "Dondo",
    "city_ascii": "Dondo",
    "admin_name": "Cuanza-Norte",
    "lat": "-9.6942",
    "lng": "14.4228",
    "id": "1024323066"
  },
  {
    "city": "Xangongo",
    "city_ascii": "Xangongo",
    "admin_name": "Cunene",
    "lat": "-16.7467",
    "lng": "14.9747",
    "id": "1024323582"
  },
  {
    "city": "Cahama",
    "city_ascii": "Cahama",
    "admin_name": "Cunene",
    "lat": "-16.2833",
    "lng": "14.3167",
    "id": "1024638606"
  },
  {
    "city": "Cuímba",
    "city_ascii": "Cuimba",
    "admin_name": "Zaire",
    "lat": "-6.1178",
    "lng": "14.6172",
    "id": "1024304233"
  },
  {
    "city": "Sanza Pombo",
    "city_ascii": "Sanza Pombo",
    "admin_name": "Uíge",
    "lat": "-7.3333",
    "lng": "16.0000",
    "id": "1024770580"
  },
  {
    "city": "Xá Muteba",
    "city_ascii": "Xa Muteba",
    "admin_name": "Lunda-Norte",
    "lat": "-9.5167",
    "lng": "17.8167",
    "id": "1024707533"
  },
  {
    "city": "Damba",
    "city_ascii": "Damba",
    "admin_name": "Uíge",
    "lat": "-6.8833",
    "lng": "15.0167",
    "id": "1024463978"
  },
  {
    "city": "Chipindo",
    "city_ascii": "Chipindo",
    "admin_name": "Huíla",
    "lat": "-13.8244",
    "lng": "15.8000",
    "id": "1024089157"
  },
  {
    "city": "Camabatela",
    "city_ascii": "Camabatela",
    "admin_name": "Cuanza-Norte",
    "lat": "-8.1833",
    "lng": "15.3667",
    "id": "1024701540"
  },
  {
    "city": "Sungo",
    "city_ascii": "Sungo",
    "admin_name": "Cuanza-Sul",
    "lat": "-11.2333",
    "lng": "14.3167",
    "id": "1024019988"
  },
  {
    "city": "Nambuangongo",
    "city_ascii": "Nambuangongo",
    "admin_name": "Bengo",
    "lat": "-8.0167",
    "lng": "14.2000",
    "id": "1024536521"
  },
  {
    "city": "Calulo",
    "city_ascii": "Calulo",
    "admin_name": "Cuanza-Sul",
    "lat": "-10.0007",
    "lng": "14.9010",
    "id": "1024545873"
  },
  {
    "city": "Camacupa",
    "city_ascii": "Camacupa",
    "admin_name": "Bié",
    "lat": "-12.0256",
    "lng": "17.4686",
    "id": "1024037086"
  },
  {
    "city": "Cambundi Catembo",
    "city_ascii": "Cambundi Catembo",
    "admin_name": "Malanje",
    "lat": "-10.0756",
    "lng": "17.5569",
    "id": "1024471573"
  },
  {
    "city": "Capenda Camulemba",
    "city_ascii": "Capenda Camulemba",
    "admin_name": "Lunda-Norte",
    "lat": "-9.4233",
    "lng": "18.4328",
    "id": "1024864144"
  },
  {
    "city": "Cuvelai",
    "city_ascii": "Cuvelai",
    "admin_name": "Cunene",
    "lat": "-15.6667",
    "lng": "15.8000",
    "id": "1024585667"
  },
  {
    "city": "Nova Esperança",
    "city_ascii": "Nova Esperanca",
    "admin_name": "Uíge",
    "lat": "-6.7333",
    "lng": "15.9000",
    "id": "1024795482"
  },
  {
    "city": "Cuemba",
    "city_ascii": "Cuemba",
    "admin_name": "Bié",
    "lat": "-12.1500",
    "lng": "18.0833",
    "id": "1024686026"
  },
  {
    "city": "Porto Alexandre",
    "city_ascii": "PortoAlexandre",
    "admin_name": "Namibe",
    "lat": "-15.8000",
    "lng": "11.8500",
    "id": "1024489244"
  },
  {
    "city": "Ucuma",
    "city_ascii": "Ucuma",
    "admin_name": "Huambo",
    "lat": "-12.8500",
    "lng": "15.0667",
    "id": "1024023900"
  },
  {
    "city": "Luquembo",
    "city_ascii": "Luquembo",
    "admin_name": "Malanje",
    "lat": "-10.7333",
    "lng": "17.8833",
    "id": "1024564888"
  },
  {
    "city": "Cangola",
    "city_ascii": "Cangola",
    "admin_name": "Uíge",
    "lat": "-7.9667",
    "lng": "15.8667",
    "id": "1024204807"
  },
  {
    "city": "Cacongo",
    "city_ascii": "Cacongo",
    "admin_name": "Cabinda",
    "lat": "-5.2333",
    "lng": "12.1333",
    "id": "1024356360"
  },
  {
    "city": "Tombôco",
    "city_ascii": "Tomboco",
    "admin_name": "Zaire",
    "lat": "-6.8000",
    "lng": "13.3000",
    "id": "1024009732"
  },
  {
    "city": "Mucaba",
    "city_ascii": "Mucaba",
    "admin_name": "Uíge",
    "lat": "-7.1667",
    "lng": "14.9333",
    "id": "1024000008"
  },
  {
    "city": "Cuchi",
    "city_ascii": "Cuchi",
    "admin_name": "Cuando Cubango",
    "lat": "-14.6500",
    "lng": "16.9000",
    "id": "1024135358"
  },
  {
    "city": "Cuito Cuanavale",
    "city_ascii": "Cuito Cuanavale",
    "admin_name": "Cuando Cubango",
    "lat": "-15.1667",
    "lng": "19.1667",
    "id": "1024195525"
  },
  {
    "city": "Cacuso",
    "city_ascii": "Cacuso",
    "admin_name": "Cuanza-Norte",
    "lat": "-8.2377",
    "lng": "15.3512",
    "id": "1024893780"
  },
  {
    "city": "Cacuso",
    "city_ascii": "Cacuso",
    "admin_name": "Malanje",
    "lat": "-9.4167",
    "lng": "15.7333",
    "id": "1024450276"
  },
  {
    "city": "Puri",
    "city_ascii": "Puri",
    "admin_name": "Uíge",
    "lat": "-7.6833",
    "lng": "15.6000",
    "id": "1024000079"
  },
  {
    "city": "Quilevo",
    "city_ascii": "Quilevo",
    "admin_name": "Uíge",
    "lat": "-7.6167",
    "lng": "15.0500",
    "id": "1024896848"
  },
  {
    "city": "Golungo Alto",
    "city_ascii": "Golungo Alto",
    "admin_name": "Cuanza-Norte",
    "lat": "-9.1333",
    "lng": "14.7667",
    "id": "1024406694"
  },
  {
    "city": "Muconda",
    "city_ascii": "Muconda",
    "admin_name": "Lunda-Sul",
    "lat": "-10.6000",
    "lng": "21.3167",
    "id": "1024646532"
  },
  {
    "city": "Bembe",
    "city_ascii": "Bembe",
    "admin_name": "Uíge",
    "lat": "-7.1000",
    "lng": "14.4500",
    "id": "1024112632"
  },
  {
    "city": "Massango",
    "city_ascii": "Massango",
    "admin_name": "Cuanza-Sul",
    "lat": "-11.3167",
    "lng": "14.9333",
    "id": "1024770645"
  },
  {
    "city": "Buco Zau",
    "city_ascii": "Buco Zau",
    "admin_name": "Cabinda",
    "lat": "-4.7617",
    "lng": "12.5419",
    "id": "1024523085"
  },
  {
    "city": "Virei",
    "city_ascii": "Virei",
    "admin_name": "Namibe",
    "lat": "-15.7167",
    "lng": "12.9500",
    "id": "1024726045"
  },
  {
    "city": "Cacolo",
    "city_ascii": "Cacolo",
    "admin_name": "Lunda-Sul",
    "lat": "-10.1333",
    "lng": "19.2667",
    "id": "1024592975"
  },
  {
    "city": "Tchindjendje",
    "city_ascii": "Tchindjendje",
    "admin_name": "Huambo",
    "lat": "-12.8167",
    "lng": "14.9333",
    "id": "1024902504"
  },
  {
    "city": "Mucari",
    "city_ascii": "Mucari",
    "admin_name": "Malanje",
    "lat": "-9.4667",
    "lng": "16.9167",
    "id": "1024127704"
  },
  {
    "city": "Marimba",
    "city_ascii": "Marimba",
    "admin_name": "Malanje",
    "lat": "-8.3667",
    "lng": "17.0167",
    "id": "1024422457"
  },
  {
    "city": "Dala",
    "city_ascii": "Dala",
    "admin_name": "Lunda-Sul",
    "lat": "-11.0342",
    "lng": "20.2036",
    "id": "1024514204"
  },
  {
    "city": "Caungula",
    "city_ascii": "Caungula",
    "admin_name": "Lunda-Norte",
    "lat": "-8.4316",
    "lng": "18.6328",
    "id": "1024421097"
  },
  {
    "city": "Nóqui",
    "city_ascii": "Noqui",
    "admin_name": "Zaire",
    "lat": "-5.8681",
    "lng": "13.4325",
    "id": "1024465001"
  },
  {
    "city": "Ambriz",
    "city_ascii": "Ambriz",
    "admin_name": "Bengo",
    "lat": "-7.8500",
    "lng": "13.1167",
    "id": "1024609563"
  },
  {
    "city": "Lucala",
    "city_ascii": "Lucala",
    "admin_name": "Bengo",
    "lat": "-9.6333",
    "lng": "14.0667",
    "id": "1024404685"
  },
  {
    "city": "Samba Cango",
    "city_ascii": "Samba Cango",
    "admin_name": "Malanje",
    "lat": "-9.1000",
    "lng": "15.5500",
    "id": "1024281729"
  },
  {
    "city": "Caombo",
    "city_ascii": "Caombo",
    "admin_name": "Malanje",
    "lat": "-8.7000",
    "lng": "16.5167",
    "id": "1024957584"
  },
  {
    "city": "Quirima",
    "city_ascii": "Quirima",
    "admin_name": "Malanje",
    "lat": "-10.9000",
    "lng": "18.0833",
    "id": "1024880976"
  },
  {
    "city": "Alto-Cuilo",
    "city_ascii": "Alto-Cuilo",
    "admin_name": "Lunda-Sul",
    "lat": "-10.0490",
    "lng": "19.5155",
    "id": "1024029875"
  },
  {
    "city": "Cuilo",
    "city_ascii": "Cuilo",
    "admin_name": "Lunda-Norte",
    "lat": "-10.0500",
    "lng": "19.5167",
    "id": "1024170131"
  },
  {
    "city": "Quela",
    "city_ascii": "Quela",
    "admin_name": "Malanje",
    "lat": "-9.3833",
    "lng": "17.0500",
    "id": "1024948229"
  },
  {
    "city": "Luacano",
    "city_ascii": "Luacano",
    "admin_name": "Moxico",
    "lat": "-11.2167",
    "lng": "21.6500",
    "id": "1024333482"
  },
  {
    "city": "Lubalo",
    "city_ascii": "Lubalo",
    "admin_name": "Lunda-Norte",
    "lat": "-9.1500",
    "lng": "19.2833",
    "id": "1024568664"
  },
  {
    "city": "Quibaxi",
    "city_ascii": "Quibaxi",
    "admin_name": "Bengo",
    "lat": "-8.5000",
    "lng": "14.5833",
    "id": "1024593185"
  },
  {
    "city": "Ambiula",
    "city_ascii": "Ambiula",
    "admin_name": "Uíge",
    "lat": "-7.4333",
    "lng": "14.6500",
    "id": "1024070190"
  },
  {
    "city": "Cangandala",
    "city_ascii": "Cangandala",
    "admin_name": "Malanje",
    "lat": "-9.7833",
    "lng": "16.4333",
    "id": "1024477783"
  },
  {
    "city": "Quimavango",
    "city_ascii": "Quimavango",
    "admin_name": "Zaire",
    "lat": "-7.6200",
    "lng": "13.0300",
    "id": "1024629174"
  },
  {
    "city": "Lóvua",
    "city_ascii": "Lovua",
    "admin_name": "Lunda-Norte",
    "lat": "-7.3470",
    "lng": "20.1751",
    "id": "1024086412"
  },
  {
    "city": "Bula Atumba",
    "city_ascii": "Bula Atumba",
    "admin_name": "Bengo",
    "lat": "-8.6753",
    "lng": "14.7949",
    "id": "1024086658"
  },
  {
    "city": "Bolongongo",
    "city_ascii": "Bolongongo",
    "admin_name": "Cuanza-Norte",
    "lat": "-8.4667",
    "lng": "15.2500",
    "id": "1024319966"
  },
  {
    "city": "Cunda diá Baze",
    "city_ascii": "Cunda dia Baze",
    "admin_name": "Malanje",
    "lat": "-8.9167",
    "lng": "17.0667",
    "id": "1024847614"
  },
  {
    "city": "Nzeto",
    "city_ascii": "Nzeto",
    "admin_name": "Zaire",
    "lat": "-7.2333",
    "lng": "12.8667",
    "id": "1024025450"
  },
  {
    "city": "Songo",
    "city_ascii": "Songo",
    "admin_name": "Uíge",
    "lat": "-7.3496",
    "lng": "14.8500",
    "id": "1024923411"
  },
  {
    "city": "Bibala",
    "city_ascii": "Bibala",
    "admin_name": "Namibe",
    "lat": "-14.7667",
    "lng": "13.3500",
    "id": "1024136533"
  },
  {
    "city": "Banga",
    "city_ascii": "Banga",
    "admin_name": "Cuanza-Norte",
    "lat": "-8.7333",
    "lng": "15.1667",
    "id": "1024994846"
  },
  {
    "city": "Quiculungo",
    "city_ascii": "Quiculungo",
    "admin_name": "Cuanza-Norte",
    "lat": "-8.5167",
    "lng": "15.3167",
    "id": "1024301079"
  },
  {
    "city": "Bala Cangamba",
    "city_ascii": "Bala Cangamba",
    "admin_name": "Moxico",
    "lat": "-13.6833",
    "lng": "19.8667",
    "id": "1024668438"
  },
  {
    "city": "Calenga",
    "city_ascii": "Calenga",
    "admin_name": "Bié",
    "lat": "-11.3196",
    "lng": "16.2000",
    "id": "1024822780"
  },
  {
    "city": "Tchitado",
    "city_ascii": "Tchitado",
    "admin_name": "Cunene",
    "lat": "-17.3167",
    "lng": "13.9167",
    "id": "1024158837"
  },
  {
    "city": "Cazombo",
    "city_ascii": "Cazombo",
    "admin_name": "Moxico",
    "lat": "-11.9000",
    "lng": "22.9000",
    "id": "1024334740"
  }
]