[
  {
    "city": "Guangzhou",
    "city_ascii": "Guangzhou",
    "admin_name": "Guangdong",
    "lat": "23.1300",
    "lng": "113.2600",
    "id": "1156237133"
  },
  {
    "city": "Shanghai",
    "city_ascii": "Shanghai",
    "admin_name": "Shanghai",
    "lat": "31.2286",
    "lng": "121.4747",
    "id": "1156073548"
  },
  {
    "city": "Beijing",
    "city_ascii": "Beijing",
    "admin_name": "Beijing",
    "lat": "39.9067",
    "lng": "116.3975",
    "id": "1156228865"
  },
  {
    "city": "Shenzhen",
    "city_ascii": "Shenzhen",
    "admin_name": "Guangdong",
    "lat": "22.5415",
    "lng": "114.0596",
    "id": "1156158707"
  },
  {
    "city": "Chengdu",
    "city_ascii": "Chengdu",
    "admin_name": "Sichuan",
    "lat": "30.6600",
    "lng": "104.0633",
    "id": "1156421555"
  },
  {
    "city": "Xi’an",
    "city_ascii": "Xi'an",
    "admin_name": "Shaanxi",
    "lat": "34.2611",
    "lng": "108.9422",
    "id": "1156244079"
  },
  {
    "city": "Chongqing",
    "city_ascii": "Chongqing",
    "admin_name": "Chongqing",
    "lat": "29.5637",
    "lng": "106.5504",
    "id": "1156936556"
  },
  {
    "city": "Linyi",
    "city_ascii": "Linyi",
    "admin_name": "Shandong",
    "lat": "35.1038",
    "lng": "118.3564",
    "id": "1156086320"
  },
  {
    "city": "Dongguan",
    "city_ascii": "Dongguan",
    "admin_name": "Guangdong",
    "lat": "23.0210",
    "lng": "113.7520",
    "id": "1156478242"
  },
  {
    "city": "Baoding",
    "city_ascii": "Baoding",
    "admin_name": "Hebei",
    "lat": "38.8740",
    "lng": "115.4640",
    "id": "1156256829"
  },
  {
    "city": "Tianjin",
    "city_ascii": "Tianjin",
    "admin_name": "Tianjin",
    "lat": "39.1336",
    "lng": "117.2054",
    "id": "1156174046"
  },
  {
    "city": "Wuhan",
    "city_ascii": "Wuhan",
    "admin_name": "Hubei",
    "lat": "30.5934",
    "lng": "114.3046",
    "id": "1156117184"
  },
  {
    "city": "Nanyang",
    "city_ascii": "Nanyang",
    "admin_name": "Henan",
    "lat": "32.9902",
    "lng": "112.5285",
    "id": "1156192287"
  },
  {
    "city": "Hangzhou",
    "city_ascii": "Hangzhou",
    "admin_name": "Zhejiang",
    "lat": "30.2670",
    "lng": "120.1530",
    "id": "1156275243"
  },
  {
    "city": "Foshan",
    "city_ascii": "Foshan",
    "admin_name": "Guangdong",
    "lat": "23.0214",
    "lng": "113.1216",
    "id": "1156738403"
  },
  {
    "city": "Zhoukou",
    "city_ascii": "Zhoukou",
    "admin_name": "Henan",
    "lat": "33.6367",
    "lng": "114.7014",
    "id": "1156272098"
  },
  {
    "city": "Tongshan",
    "city_ascii": "Tongshan",
    "admin_name": "Jiangsu",
    "lat": "34.2610",
    "lng": "117.1859",
    "id": "1156241678"
  },
  {
    "city": "Nanjing",
    "city_ascii": "Nanjing",
    "admin_name": "Jiangsu",
    "lat": "32.0608",
    "lng": "118.7789",
    "id": "1156644065"
  },
  {
    "city": "Heze",
    "city_ascii": "Heze",
    "admin_name": "Shandong",
    "lat": "35.2343",
    "lng": "115.4796",
    "id": "1156225008"
  },
  {
    "city": "Jining",
    "city_ascii": "Jining",
    "admin_name": "Shandong",
    "lat": "35.4151",
    "lng": "116.5871",
    "id": "1156504601"
  },
  {
    "city": "Shenyang",
    "city_ascii": "Shenyang",
    "admin_name": "Liaoning",
    "lat": "41.8025",
    "lng": "123.4281",
    "id": "1156309382"
  },
  {
    "city": "Fuyang",
    "city_ascii": "Fuyang",
    "admin_name": "Anhui",
    "lat": "32.8900",
    "lng": "115.8140",
    "id": "1156248008"
  },
  {
    "city": "Ganzhou",
    "city_ascii": "Ganzhou",
    "admin_name": "Jiangxi",
    "lat": "25.8310",
    "lng": "114.9330",
    "id": "1156832475"
  },
  {
    "city": "Shangqiu",
    "city_ascii": "Shangqiu",
    "admin_name": "Henan",
    "lat": "34.4150",
    "lng": "115.6560",
    "id": "1156805441"
  },
  {
    "city": "Cangzhou",
    "city_ascii": "Cangzhou",
    "admin_name": "Hebei",
    "lat": "38.3047",
    "lng": "116.8387",
    "id": "1156698069"
  },
  {
    "city": "Zhumadian",
    "city_ascii": "Zhumadian",
    "admin_name": "Henan",
    "lat": "33.0140",
    "lng": "114.0220",
    "id": "1156184822"
  },
  {
    "city": "Zhanjiang",
    "city_ascii": "Zhanjiang",
    "admin_name": "Guangdong",
    "lat": "21.2701",
    "lng": "110.3575",
    "id": "1156502170"
  },
  {
    "city": "Yancheng",
    "city_ascii": "Yancheng",
    "admin_name": "Jiangsu",
    "lat": "33.3500",
    "lng": "120.1569",
    "id": "1156995410"
  },
  {
    "city": "Bijie",
    "city_ascii": "Bijie",
    "admin_name": "Guizhou",
    "lat": "27.2840",
    "lng": "105.2920",
    "id": "1156018927"
  },
  {
    "city": "Xingtai",
    "city_ascii": "Xingtai",
    "admin_name": "Hebei",
    "lat": "37.0717",
    "lng": "114.5048",
    "id": "1156294952"
  },
  {
    "city": "Hengyang",
    "city_ascii": "Hengyang",
    "admin_name": "Hunan",
    "lat": "26.8940",
    "lng": "112.5720",
    "id": "1156696884"
  },
  {
    "city": "Shaoyang",
    "city_ascii": "Shaoyang",
    "admin_name": "Hunan",
    "lat": "27.2395",
    "lng": "111.4679",
    "id": "1156310366"
  },
  {
    "city": "Quanzhou",
    "city_ascii": "Quanzhou",
    "admin_name": "Fujian",
    "lat": "24.8744",
    "lng": "118.6757",
    "id": "1156829655"
  },
  {
    "city": "Shangrao",
    "city_ascii": "Shangrao",
    "admin_name": "Jiangxi",
    "lat": "28.4551",
    "lng": "117.9431",
    "id": "1156405492"
  },
  {
    "city": "Zunyi",
    "city_ascii": "Zunyi",
    "admin_name": "Guizhou",
    "lat": "27.7220",
    "lng": "107.0310",
    "id": "1156539782"
  },
  {
    "city": "Maoming",
    "city_ascii": "Maoming",
    "admin_name": "Guangdong",
    "lat": "21.6627",
    "lng": "110.9255",
    "id": "1156568722"
  },
  {
    "city": "Xinyang",
    "city_ascii": "Xinyang",
    "admin_name": "Henan",
    "lat": "32.1490",
    "lng": "114.0910",
    "id": "1156273453"
  },
  {
    "city": "Huanggang",
    "city_ascii": "Huanggang",
    "admin_name": "Hubei",
    "lat": "30.4537",
    "lng": "114.8724",
    "id": "1156200037"
  },
  {
    "city": "Dalian",
    "city_ascii": "Dalian",
    "admin_name": "Liaoning",
    "lat": "38.9000",
    "lng": "121.6000",
    "id": "1156175472"
  },
  {
    "city": "Qingdao",
    "city_ascii": "Qingdao",
    "admin_name": "Shandong",
    "lat": "36.0669",
    "lng": "120.3827",
    "id": "1156112588"
  },
  {
    "city": "Yulin",
    "city_ascii": "Yulin",
    "admin_name": "Guangxi",
    "lat": "22.6540",
    "lng": "110.1810",
    "id": "1156901312"
  },
  {
    "city": "Liaocheng",
    "city_ascii": "Liaocheng",
    "admin_name": "Shandong",
    "lat": "36.4559",
    "lng": "115.9852",
    "id": "1156006600"
  },
  {
    "city": "Qujing",
    "city_ascii": "Qujing",
    "admin_name": "Yunnan",
    "lat": "25.4910",
    "lng": "103.7960",
    "id": "1156747998"
  },
  {
    "city": "Nangandao",
    "city_ascii": "Nangandao",
    "admin_name": "Henan",
    "lat": "35.3036",
    "lng": "113.9268",
    "id": "1156127660"
  },
  {
    "city": "Zhengzhou",
    "city_ascii": "Zhengzhou",
    "admin_name": "Henan",
    "lat": "34.7640",
    "lng": "113.6840",
    "id": "1156183137"
  },
  {
    "city": "Nanchong",
    "city_ascii": "Nanchong",
    "admin_name": "Sichuan",
    "lat": "30.8372",
    "lng": "106.1106",
    "id": "1156762337"
  },
  {
    "city": "Jinan",
    "city_ascii": "Jinan",
    "admin_name": "Shandong",
    "lat": "36.6702",
    "lng": "117.0207",
    "id": "1156972469"
  },
  {
    "city": "Jieyang",
    "city_ascii": "Jieyang",
    "admin_name": "Guangdong",
    "lat": "23.5510",
    "lng": "116.3727",
    "id": "1156260378"
  },
  {
    "city": "Dezhou",
    "city_ascii": "Dezhou",
    "admin_name": "Shandong",
    "lat": "37.4360",
    "lng": "116.3590",
    "id": "1156524080"
  },
  {
    "city": "Tai’an",
    "city_ascii": "Tai'an",
    "admin_name": "Shandong",
    "lat": "36.2020",
    "lng": "117.0870",
    "id": "1156095188"
  },
  {
    "city": "Dazhou",
    "city_ascii": "Dazhou",
    "admin_name": "Sichuan",
    "lat": "31.2093",
    "lng": "107.4678",
    "id": "1156834076"
  },
  {
    "city": "Suzhou",
    "city_ascii": "Suzhou",
    "admin_name": "Anhui",
    "lat": "33.6480",
    "lng": "116.9640",
    "id": "1156871297"
  },
  {
    "city": "Yongzhou",
    "city_ascii": "Yongzhou",
    "admin_name": "Hunan",
    "lat": "26.4200",
    "lng": "111.6130",
    "id": "1156694479"
  },
  {
    "city": "Changde",
    "city_ascii": "Changde",
    "admin_name": "Hunan",
    "lat": "29.0310",
    "lng": "111.6990",
    "id": "1156449091"
  },
  {
    "city": "Xiangyang",
    "city_ascii": "Xiangyang",
    "admin_name": "Hubei",
    "lat": "32.0100",
    "lng": "112.1220",
    "id": "1156107325"
  },
  {
    "city": "Pudong",
    "city_ascii": "Pudong",
    "admin_name": "Shanghai",
    "lat": "31.2347",
    "lng": "121.5064",
    "id": "1156644508"
  },
  {
    "city": "Zhaotong",
    "city_ascii": "Zhaotong",
    "admin_name": "Yunnan",
    "lat": "27.3380",
    "lng": "103.7170",
    "id": "1156924687"
  },
  {
    "city": "Zhangzhou",
    "city_ascii": "Zhangzhou",
    "admin_name": "Fujian",
    "lat": "24.5130",
    "lng": "117.6470",
    "id": "1156241637"
  },
  {
    "city": "Yueyang",
    "city_ascii": "Yueyang",
    "admin_name": "Hunan",
    "lat": "29.3647",
    "lng": "113.1309",
    "id": "1156586314"
  },
  {
    "city": "Yichun",
    "city_ascii": "Yichun",
    "admin_name": "Jiangxi",
    "lat": "27.8160",
    "lng": "114.4170",
    "id": "1156229590"
  },
  {
    "city": "Guilin",
    "city_ascii": "Guilin",
    "admin_name": "Guangxi",
    "lat": "25.2750",
    "lng": "110.2960",
    "id": "1156235364"
  },
  {
    "city": "Pingdingshan",
    "city_ascii": "Pingdingshan",
    "admin_name": "Henan",
    "lat": "33.7666",
    "lng": "113.1926",
    "id": "1156735124"
  },
  {
    "city": "Bozhou",
    "city_ascii": "Bozhou",
    "admin_name": "Anhui",
    "lat": "33.8463",
    "lng": "115.7786",
    "id": "1156356860"
  },
  {
    "city": "Yuncheng",
    "city_ascii": "Yuncheng",
    "admin_name": "Shanxi",
    "lat": "35.0267",
    "lng": "111.0070",
    "id": "1156705644"
  },
  {
    "city": "Changsha",
    "city_ascii": "Changsha",
    "admin_name": "Hunan",
    "lat": "28.2280",
    "lng": "112.9390",
    "id": "1156961497"
  },
  {
    "city": "Suqian",
    "city_ascii": "Suqian",
    "admin_name": "Jiangsu",
    "lat": "33.9630",
    "lng": "118.2750",
    "id": "1156212349"
  },
  {
    "city": "Weinan",
    "city_ascii": "Weinan",
    "admin_name": "Shaanxi",
    "lat": "34.5206",
    "lng": "109.4710",
    "id": "1156903687"
  },
  {
    "city": "Chenzhou",
    "city_ascii": "Chenzhou",
    "admin_name": "Hunan",
    "lat": "25.7700",
    "lng": "113.0160",
    "id": "1156291915"
  },
  {
    "city": "Jiangmen",
    "city_ascii": "Jiangmen",
    "admin_name": "Guangdong",
    "lat": "22.5789",
    "lng": "113.0815",
    "id": "1156105613"
  },
  {
    "city": "Mianyang",
    "city_ascii": "Mianyang",
    "admin_name": "Sichuan",
    "lat": "31.4680",
    "lng": "104.6790",
    "id": "1156417758"
  },
  {
    "city": "Jiujiang",
    "city_ascii": "Jiujiang",
    "admin_name": "Jiangxi",
    "lat": "29.6610",
    "lng": "115.9540",
    "id": "1156206041"
  },
  {
    "city": "Huaihua",
    "city_ascii": "Huaihua",
    "admin_name": "Hunan",
    "lat": "27.5698",
    "lng": "110.0016",
    "id": "1156353465"
  },
  {
    "city": "Huanglongsi",
    "city_ascii": "Huanglongsi",
    "admin_name": "Henan",
    "lat": "34.7950",
    "lng": "114.3450",
    "id": "1156198356"
  },
  {
    "city": "Taizhou",
    "city_ascii": "Taizhou",
    "admin_name": "Jiangsu",
    "lat": "32.4567",
    "lng": "119.9229",
    "id": "1156119229"
  },
  {
    "city": "Yibin",
    "city_ascii": "Yibin",
    "admin_name": "Sichuan",
    "lat": "28.7520",
    "lng": "104.6430",
    "id": "1156107603"
  },
  {
    "city": "Ji’an",
    "city_ascii": "Ji'an",
    "admin_name": "Jiangxi",
    "lat": "27.0912",
    "lng": "114.9668",
    "id": "1156278215"
  },
  {
    "city": "Yangzhou",
    "city_ascii": "Yangzhou",
    "admin_name": "Jiangsu",
    "lat": "32.3944",
    "lng": "119.4128",
    "id": "1156818601"
  },
  {
    "city": "Kunming",
    "city_ascii": "Kunming",
    "admin_name": "Yunnan",
    "lat": "25.0464",
    "lng": "102.7094",
    "id": "1156477539"
  },
  {
    "city": "Changchun",
    "city_ascii": "Changchun",
    "admin_name": "Jilin",
    "lat": "43.8970",
    "lng": "125.3260",
    "id": "1156078103"
  },
  {
    "city": "Lu’an",
    "city_ascii": "Lu'an",
    "admin_name": "Anhui",
    "lat": "31.7360",
    "lng": "116.5200",
    "id": "1156499624"
  },
  {
    "city": "Xinpu",
    "city_ascii": "Xinpu",
    "admin_name": "Jiangsu",
    "lat": "34.5966",
    "lng": "119.2214",
    "id": "1156035381"
  },
  {
    "city": "Langfang",
    "city_ascii": "Langfang",
    "admin_name": "Hebei",
    "lat": "39.5383",
    "lng": "116.6835",
    "id": "1156109017"
  },
  {
    "city": "Ürümqi",
    "city_ascii": "Urumqi",
    "admin_name": "Xinjiang",
    "lat": "43.8225",
    "lng": "87.6125",
    "id": "1156051276"
  },
  {
    "city": "Suzhou",
    "city_ascii": "Suzhou",
    "admin_name": "Jiangsu",
    "lat": "31.3000",
    "lng": "120.6194",
    "id": "1156029196"
  },
  {
    "city": "Guigang",
    "city_ascii": "Guigang",
    "admin_name": "Guangxi",
    "lat": "23.1120",
    "lng": "109.5990",
    "id": "1156895251"
  },
  {
    "city": "Shantou",
    "city_ascii": "Shantou",
    "admin_name": "Guangdong",
    "lat": "23.3540",
    "lng": "116.6820",
    "id": "1156457499"
  },
  {
    "city": "Jiangguanchi",
    "city_ascii": "Jiangguanchi",
    "admin_name": "Henan",
    "lat": "34.0370",
    "lng": "113.8520",
    "id": "1156235735"
  },
  {
    "city": "Xiaoganzhan",
    "city_ascii": "Xiaoganzhan",
    "admin_name": "Hubei",
    "lat": "30.9180",
    "lng": "113.9570",
    "id": "1156002290"
  },
  {
    "city": "Luzhou",
    "city_ascii": "Luzhou",
    "admin_name": "Sichuan",
    "lat": "28.8710",
    "lng": "105.4420",
    "id": "1156582079"
  },
  {
    "city": "Hefei",
    "city_ascii": "Hefei",
    "admin_name": "Anhui",
    "lat": "31.8206",
    "lng": "117.2273",
    "id": "1156332710"
  },
  {
    "city": "Hengshui",
    "city_ascii": "Hengshui",
    "admin_name": "Hebei",
    "lat": "37.7390",
    "lng": "115.6690",
    "id": "1156803028"
  },
  {
    "city": "Anqing",
    "city_ascii": "Anqing",
    "admin_name": "Anhui",
    "lat": "30.5318",
    "lng": "117.1153",
    "id": "1156238875"
  },
  {
    "city": "Zhangjiakou",
    "city_ascii": "Zhangjiakou",
    "admin_name": "Hebei",
    "lat": "40.7690",
    "lng": "114.8860",
    "id": "1156800221"
  },
  {
    "city": "Zhaoqing",
    "city_ascii": "Zhaoqing",
    "admin_name": "Guangdong",
    "lat": "23.0500",
    "lng": "112.4667",
    "id": "1156170144"
  },
  {
    "city": "Shijiazhuang",
    "city_ascii": "Shijiazhuang",
    "admin_name": "Hebei",
    "lat": "38.0425",
    "lng": "114.5100",
    "id": "1156217541"
  },
  {
    "city": "Ningbo",
    "city_ascii": "Ningbo",
    "admin_name": "Zhejiang",
    "lat": "29.8603",
    "lng": "121.6245",
    "id": "1156170787"
  },
  {
    "city": "Qiqihar",
    "city_ascii": "Qiqihar",
    "admin_name": "Heilongjiang",
    "lat": "47.3549",
    "lng": "123.9182",
    "id": "1156775905"
  },
  {
    "city": "Liuzhou",
    "city_ascii": "Liuzhou",
    "admin_name": "Guangxi",
    "lat": "24.3278",
    "lng": "109.4278",
    "id": "1156360785"
  },
  {
    "city": "Chifeng",
    "city_ascii": "Chifeng",
    "admin_name": "Inner Mongolia",
    "lat": "42.2550",
    "lng": "118.8825",
    "id": "1156277458"
  },
  {
    "city": "Xiaoxita",
    "city_ascii": "Xiaoxita",
    "admin_name": "Hubei",
    "lat": "30.6920",
    "lng": "111.2870",
    "id": "1156764447"
  },
  {
    "city": "Linfen",
    "city_ascii": "Linfen",
    "admin_name": "Shanxi",
    "lat": "36.0880",
    "lng": "111.5190",
    "id": "1156416074"
  },
  {
    "city": "Xianyang",
    "city_ascii": "Xianyang",
    "admin_name": "Shaanxi",
    "lat": "34.3299",
    "lng": "108.7088",
    "id": "1156120117"
  },
  {
    "city": "Chuzhou",
    "city_ascii": "Chuzhou",
    "admin_name": "Anhui",
    "lat": "32.2560",
    "lng": "118.3330",
    "id": "1156036420"
  },
  {
    "city": "Zhuzhou",
    "city_ascii": "Zhuzhou",
    "admin_name": "Hunan",
    "lat": "27.8290",
    "lng": "113.1330",
    "id": "1156041962"
  },
  {
    "city": "Taiyuan",
    "city_ascii": "Taiyuan",
    "admin_name": "Shanxi",
    "lat": "37.8704",
    "lng": "112.5497",
    "id": "1156632014"
  },
  {
    "city": "Qingyuan",
    "city_ascii": "Qingyuan",
    "admin_name": "Guangdong",
    "lat": "23.6820",
    "lng": "113.0560",
    "id": "1156135890"
  },
  {
    "city": "Meizhou",
    "city_ascii": "Meizhou",
    "admin_name": "Guangdong",
    "lat": "24.2890",
    "lng": "116.1220",
    "id": "1156361028"
  },
  {
    "city": "Yiyang",
    "city_ascii": "Yiyang",
    "admin_name": "Hunan",
    "lat": "28.5549",
    "lng": "112.3560",
    "id": "1156218615"
  },
  {
    "city": "Nanning",
    "city_ascii": "Nanning",
    "admin_name": "Guangxi",
    "lat": "22.8167",
    "lng": "108.3275",
    "id": "1156605439"
  },
  {
    "city": "Harbin",
    "city_ascii": "Harbin",
    "admin_name": "Heilongjiang",
    "lat": "45.7576",
    "lng": "126.6409",
    "id": "1156241528"
  },
  {
    "city": "Loudi",
    "city_ascii": "Loudi",
    "admin_name": "Hunan",
    "lat": "27.6998",
    "lng": "111.9944",
    "id": "1156010654"
  },
  {
    "city": "Suihua",
    "city_ascii": "Suihua",
    "admin_name": "Heilongjiang",
    "lat": "46.6540",
    "lng": "126.9690",
    "id": "1156235493"
  },
  {
    "city": "Binzhou",
    "city_ascii": "Binzhou",
    "admin_name": "Shandong",
    "lat": "37.3830",
    "lng": "117.9710",
    "id": "1156564962"
  },
  {
    "city": "Zaozhuang",
    "city_ascii": "Zaozhuang",
    "admin_name": "Shandong",
    "lat": "34.8109",
    "lng": "117.3238",
    "id": "1156796454"
  },
  {
    "city": "Xiamen",
    "city_ascii": "Xiamen",
    "admin_name": "Fujian",
    "lat": "24.4796",
    "lng": "118.0889",
    "id": "1156212809"
  },
  {
    "city": "Fuzhou",
    "city_ascii": "Fuzhou",
    "admin_name": "Fujian",
    "lat": "26.0743",
    "lng": "119.2964",
    "id": "1156188037"
  },
  {
    "city": "Wuhu",
    "city_ascii": "Wuhu",
    "admin_name": "Anhui",
    "lat": "31.3526",
    "lng": "118.4331",
    "id": "1156315512"
  },
  {
    "city": "Yulinshi",
    "city_ascii": "Yulinshi",
    "admin_name": "Shaanxi",
    "lat": "38.2858",
    "lng": "109.7341",
    "id": "1156280672"
  },
  {
    "city": "Fuzhou",
    "city_ascii": "Fuzhou",
    "admin_name": "Jiangxi",
    "lat": "27.9490",
    "lng": "116.3580",
    "id": "1156915325"
  },
  {
    "city": "Wenzhou",
    "city_ascii": "Wenzhou",
    "admin_name": "Zhejiang",
    "lat": "27.9938",
    "lng": "120.6993",
    "id": "1156188829"
  },
  {
    "city": "Changzhou",
    "city_ascii": "Changzhou",
    "admin_name": "Jiangsu",
    "lat": "31.8110",
    "lng": "119.9740",
    "id": "1156185511"
  },
  {
    "city": "Puyang",
    "city_ascii": "Puyang",
    "admin_name": "Henan",
    "lat": "35.7627",
    "lng": "115.0292",
    "id": "1156431924"
  },
  {
    "city": "Nanchang",
    "city_ascii": "Nanchang",
    "admin_name": "Jiangxi",
    "lat": "28.6830",
    "lng": "115.8580",
    "id": "1156198892"
  },
  {
    "city": "Baicheng",
    "city_ascii": "Baicheng",
    "admin_name": "Guangxi",
    "lat": "23.9030",
    "lng": "106.6190",
    "id": "1156981113"
  },
  {
    "city": "Jiaozuo",
    "city_ascii": "Jiaozuo",
    "admin_name": "Henan",
    "lat": "35.2157",
    "lng": "113.2419",
    "id": "1156157854"
  },
  {
    "city": "Deyang",
    "city_ascii": "Deyang",
    "admin_name": "Sichuan",
    "lat": "31.1270",
    "lng": "104.3980",
    "id": "1156127147"
  },
  {
    "city": "Hechi",
    "city_ascii": "Hechi",
    "admin_name": "Guangxi",
    "lat": "24.6930",
    "lng": "108.0850",
    "id": "1156167204"
  },
  {
    "city": "Tangshan",
    "city_ascii": "Tangshan",
    "admin_name": "Hebei",
    "lat": "39.6294",
    "lng": "118.1739",
    "id": "1156904299"
  },
  {
    "city": "Anshan",
    "city_ascii": "Anshan",
    "admin_name": "Liaoning",
    "lat": "41.1080",
    "lng": "122.9940",
    "id": "1156901825"
  },
  {
    "city": "Guozhen",
    "city_ascii": "Guozhen",
    "admin_name": "Shaanxi",
    "lat": "34.3609",
    "lng": "107.1751",
    "id": "1156084652"
  },
  {
    "city": "Baojishi",
    "city_ascii": "Baojishi",
    "admin_name": "Shaanxi",
    "lat": "34.3630",
    "lng": "107.2380",
    "id": "1156101096"
  },
  {
    "city": "Qinzhou",
    "city_ascii": "Qinzhou",
    "admin_name": "Guangxi",
    "lat": "21.9810",
    "lng": "108.6540",
    "id": "1156106602"
  },
  {
    "city": "Guiyang",
    "city_ascii": "Guiyang",
    "admin_name": "Guizhou",
    "lat": "26.6470",
    "lng": "106.6300",
    "id": "1156932620"
  },
  {
    "city": "Wuxi",
    "city_ascii": "Wuxi",
    "admin_name": "Jiangsu",
    "lat": "31.5667",
    "lng": "120.2833",
    "id": "1156019650"
  },
  {
    "city": "Hanzhong",
    "city_ascii": "Hanzhong",
    "admin_name": "Shaanxi",
    "lat": "33.0664",
    "lng": "107.0232",
    "id": "1156382678"
  },
  {
    "city": "Shiyan",
    "city_ascii": "Shiyan",
    "admin_name": "Hubei",
    "lat": "32.6290",
    "lng": "110.7987",
    "id": "1156383921"
  },
  {
    "city": "Guang’an",
    "city_ascii": "Guang'an",
    "admin_name": "Sichuan",
    "lat": "30.4564",
    "lng": "106.6326",
    "id": "1156377302"
  },
  {
    "city": "Changzhi",
    "city_ascii": "Changzhi",
    "admin_name": "Shanxi",
    "lat": "36.1950",
    "lng": "113.1170",
    "id": "1156057944"
  },
  {
    "city": "Tongren",
    "city_ascii": "Tongren",
    "admin_name": "Guizhou",
    "lat": "27.7316",
    "lng": "109.1895",
    "id": "1156803442"
  },
  {
    "city": "Bengbu",
    "city_ascii": "Bengbu",
    "admin_name": "Anhui",
    "lat": "32.9170",
    "lng": "117.3890",
    "id": "1156440668"
  },
  {
    "city": "Leshan",
    "city_ascii": "Leshan",
    "admin_name": "Sichuan",
    "lat": "29.5520",
    "lng": "103.7660",
    "id": "1156203130"
  },
  {
    "city": "Neijiang",
    "city_ascii": "Neijiang",
    "admin_name": "Sichuan",
    "lat": "29.5802",
    "lng": "105.0580",
    "id": "1156516335"
  },
  {
    "city": "Zhenjiang",
    "city_ascii": "Zhenjiang",
    "admin_name": "Jiangsu",
    "lat": "32.1880",
    "lng": "119.4240",
    "id": "1156934125"
  },
  {
    "city": "Qinhuangdao",
    "city_ascii": "Qinhuangdao",
    "admin_name": "Hebei",
    "lat": "39.8882",
    "lng": "119.5202",
    "id": "1156091093"
  },
  {
    "city": "Lanzhou",
    "city_ascii": "Lanzhou",
    "admin_name": "Gansu",
    "lat": "36.0606",
    "lng": "103.8268",
    "id": "1156280566"
  },
  {
    "city": "Qincheng",
    "city_ascii": "Qincheng",
    "admin_name": "Gansu",
    "lat": "34.5815",
    "lng": "105.7248",
    "id": "1156104017"
  },
  {
    "city": "Meishan",
    "city_ascii": "Meishan",
    "admin_name": "Sichuan",
    "lat": "30.0771",
    "lng": "103.8484",
    "id": "1156185501"
  },
  {
    "city": "Ningde",
    "city_ascii": "Ningde",
    "admin_name": "Fujian",
    "lat": "26.6662",
    "lng": "119.5477",
    "id": "1156909802"
  },
  {
    "city": "Zhongshan",
    "city_ascii": "Zhongshan",
    "admin_name": "Guangdong",
    "lat": "22.5170",
    "lng": "113.3925",
    "id": "1156579621"
  },
  {
    "city": "Putian",
    "city_ascii": "Putian",
    "admin_name": "Fujian",
    "lat": "25.4526",
    "lng": "119.0078",
    "id": "1156811601"
  },
  {
    "city": "Tongliao",
    "city_ascii": "Tongliao",
    "admin_name": "Inner Mongolia",
    "lat": "43.6540",
    "lng": "122.2430",
    "id": "1156358686"
  },
  {
    "city": "Chaoyang",
    "city_ascii": "Chaoyang",
    "admin_name": "Liaoning",
    "lat": "41.5710",
    "lng": "120.4530",
    "id": "1156706927"
  },
  {
    "city": "Hohhot",
    "city_ascii": "Hohhot",
    "admin_name": "Inner Mongolia",
    "lat": "40.8420",
    "lng": "111.7490",
    "id": "1156210167"
  },
  {
    "city": "Shaoguan",
    "city_ascii": "Shaoguan",
    "admin_name": "Guangdong",
    "lat": "24.8110",
    "lng": "113.5970",
    "id": "1156617066"
  },
  {
    "city": "Heyuan",
    "city_ascii": "Heyuan",
    "admin_name": "Guangdong",
    "lat": "23.7443",
    "lng": "114.7002",
    "id": "1156665165"
  },
  {
    "city": "Wuzhou",
    "city_ascii": "Wuzhou",
    "admin_name": "Guangxi",
    "lat": "23.4767",
    "lng": "111.2790",
    "id": "1156620133"
  },
  {
    "city": "Suining",
    "city_ascii": "Suining",
    "admin_name": "Sichuan",
    "lat": "30.5330",
    "lng": "105.5930",
    "id": "1156655650"
  },
  {
    "city": "Weihai",
    "city_ascii": "Weihai",
    "admin_name": "Shandong",
    "lat": "37.5133",
    "lng": "122.1205",
    "id": "1156473300"
  },
  {
    "city": "Rizhao",
    "city_ascii": "Rizhao",
    "admin_name": "Shandong",
    "lat": "35.4170",
    "lng": "119.5270",
    "id": "1156032841"
  },
  {
    "city": "Daqing",
    "city_ascii": "Daqing",
    "admin_name": "Heilongjiang",
    "lat": "46.5890",
    "lng": "125.1040",
    "id": "1156403962"
  },
  {
    "city": "Xiangtan",
    "city_ascii": "Xiangtan",
    "admin_name": "Hunan",
    "lat": "27.8313",
    "lng": "112.9454",
    "id": "1156195684"
  },
  {
    "city": "Bazhou",
    "city_ascii": "Bazhou",
    "admin_name": "Sichuan",
    "lat": "31.8680",
    "lng": "106.7480",
    "id": "1156271365"
  },
  {
    "city": "Handan",
    "city_ascii": "Handan",
    "admin_name": "Hebei",
    "lat": "36.6010",
    "lng": "114.4870",
    "id": "1156957080"
  },
  {
    "city": "Jinzhou",
    "city_ascii": "Jinzhou",
    "admin_name": "Liaoning",
    "lat": "41.1290",
    "lng": "121.1480",
    "id": "1156157151"
  },
  {
    "city": "Xinzhou",
    "city_ascii": "Xinzhou",
    "admin_name": "Shanxi",
    "lat": "38.4160",
    "lng": "112.7340",
    "id": "1156617534"
  },
  {
    "city": "Nanping",
    "city_ascii": "Nanping",
    "admin_name": "Fujian",
    "lat": "26.6418",
    "lng": "118.1774",
    "id": "1156927445"
  },
  {
    "city": "Shanwei",
    "city_ascii": "Shanwei",
    "admin_name": "Guangdong",
    "lat": "22.7872",
    "lng": "115.3756",
    "id": "1156939010"
  },
  {
    "city": "Chaozhou",
    "city_ascii": "Chaozhou",
    "admin_name": "Guangdong",
    "lat": "23.6580",
    "lng": "116.6220",
    "id": "1156549118"
  },
  {
    "city": "Baotou",
    "city_ascii": "Baotou",
    "admin_name": "Inner Mongolia",
    "lat": "40.6213",
    "lng": "109.9532",
    "id": "1156032751"
  },
  {
    "city": "Longyan",
    "city_ascii": "Longyan",
    "admin_name": "Fujian",
    "lat": "25.0760",
    "lng": "117.0170",
    "id": "1156012979"
  },
  {
    "city": "Weifang",
    "city_ascii": "Weifang",
    "admin_name": "Shandong",
    "lat": "36.7080",
    "lng": "119.1620",
    "id": "1156912965"
  },
  {
    "city": "Huai’an",
    "city_ascii": "Huai'an",
    "admin_name": "Jiangsu",
    "lat": "33.5510",
    "lng": "119.1130",
    "id": "1156634228"
  },
  {
    "city": "Zibo",
    "city_ascii": "Zibo",
    "admin_name": "Shandong",
    "lat": "36.8138",
    "lng": "118.0550",
    "id": "1156381094"
  },
  {
    "city": "Gulou",
    "city_ascii": "Gulou",
    "admin_name": "Fujian",
    "lat": "26.0865",
    "lng": "119.2980",
    "id": "1156680279"
  },
  {
    "city": "Yangjiang",
    "city_ascii": "Yangjiang",
    "admin_name": "Guangdong",
    "lat": "21.8570",
    "lng": "111.9830",
    "id": "1156123172"
  },
  {
    "city": "Dingxi",
    "city_ascii": "Dingxi",
    "admin_name": "Gansu",
    "lat": "35.6080",
    "lng": "104.5920",
    "id": "1156518274"
  },
  {
    "city": "Shaoxing",
    "city_ascii": "Shaoxing",
    "admin_name": "Zhejiang",
    "lat": "30.0511",
    "lng": "120.5833",
    "id": "1156893449"
  },
  {
    "city": "Yantai",
    "city_ascii": "Yantai",
    "admin_name": "Shandong",
    "lat": "37.4646",
    "lng": "121.4478",
    "id": "1156932948"
  },
  {
    "city": "Huizhou",
    "city_ascii": "Huizhou",
    "admin_name": "Guangdong",
    "lat": "23.1120",
    "lng": "114.4160",
    "id": "1156203268"
  },
  {
    "city": "Xuanzhou",
    "city_ascii": "Xuanzhou",
    "admin_name": "Anhui",
    "lat": "30.9390",
    "lng": "118.7590",
    "id": "1156424311"
  },
  {
    "city": "Ankang",
    "city_ascii": "Ankang",
    "admin_name": "Shaanxi",
    "lat": "32.6854",
    "lng": "109.0290",
    "id": "1156255711"
  },
  {
    "city": "Zigong",
    "city_ascii": "Zigong",
    "admin_name": "Sichuan",
    "lat": "29.3390",
    "lng": "104.7790",
    "id": "1156023354"
  },
  {
    "city": "Sanming",
    "city_ascii": "Sanming",
    "admin_name": "Fujian",
    "lat": "26.2634",
    "lng": "117.6389",
    "id": "1156294429"
  },
  {
    "city": "Huangshi",
    "city_ascii": "Huangshi",
    "admin_name": "Hubei",
    "lat": "30.2011",
    "lng": "115.0390",
    "id": "1156234290"
  },
  {
    "city": "Zhuhai",
    "city_ascii": "Zhuhai",
    "admin_name": "Guangdong",
    "lat": "22.2742",
    "lng": "113.5719",
    "id": "1156722242"
  },
  {
    "city": "Huludao",
    "city_ascii": "Huludao",
    "admin_name": "Liaoning",
    "lat": "40.7110",
    "lng": "120.8370",
    "id": "1156580218"
  },
  {
    "city": "Baoshan",
    "city_ascii": "Baoshan",
    "admin_name": "Yunnan",
    "lat": "25.1120",
    "lng": "99.1610",
    "id": "1156546994"
  },
  {
    "city": "Lianshan",
    "city_ascii": "Lianshan",
    "admin_name": "Liaoning",
    "lat": "40.7523",
    "lng": "120.8280",
    "id": "1156046704"
  },
  {
    "city": "Longba",
    "city_ascii": "Longba",
    "admin_name": "Gansu",
    "lat": "33.3702",
    "lng": "104.9603",
    "id": "1156633259"
  },
  {
    "city": "Tieling",
    "city_ascii": "Tieling",
    "admin_name": "Liaoning",
    "lat": "42.2237",
    "lng": "123.7260",
    "id": "1156089994"
  },
  {
    "city": "Yunfu",
    "city_ascii": "Yunfu",
    "admin_name": "Guangdong",
    "lat": "22.9152",
    "lng": "112.0445",
    "id": "1156057251"
  },
  {
    "city": "Luoyang",
    "city_ascii": "Luoyang",
    "admin_name": "Henan",
    "lat": "34.6197",
    "lng": "112.4539",
    "id": "1156069315"
  },
  {
    "city": "Luohe",
    "city_ascii": "Luohe",
    "admin_name": "Henan",
    "lat": "33.5804",
    "lng": "114.0166",
    "id": "1156330876"
  },
  {
    "city": "Anshun",
    "city_ascii": "Anshun",
    "admin_name": "Guizhou",
    "lat": "26.2531",
    "lng": "105.9476",
    "id": "1156415948"
  },
  {
    "city": "Huainan",
    "city_ascii": "Huainan",
    "admin_name": "Anhui",
    "lat": "32.6314",
    "lng": "117.0194",
    "id": "1156877299"
  },
  {
    "city": "Yanjiang",
    "city_ascii": "Yanjiang",
    "admin_name": "Sichuan",
    "lat": "30.1290",
    "lng": "104.6270",
    "id": "1156217114"
  },
  {
    "city": "Guangyuan",
    "city_ascii": "Guangyuan",
    "admin_name": "Sichuan",
    "lat": "32.4360",
    "lng": "105.8440",
    "id": "1156084562"
  },
  {
    "city": "Yingkou",
    "city_ascii": "Yingkou",
    "admin_name": "Liaoning",
    "lat": "40.6250",
    "lng": "122.2190",
    "id": "1156257074"
  },
  {
    "city": "Mudanjiang",
    "city_ascii": "Mudanjiang",
    "admin_name": "Heilongjiang",
    "lat": "44.5514",
    "lng": "129.6329",
    "id": "1156249698"
  },
  {
    "city": "Nantong",
    "city_ascii": "Nantong",
    "admin_name": "Jiangsu",
    "lat": "31.9810",
    "lng": "120.8940",
    "id": "1156045365"
  },
  {
    "city": "Lincang",
    "city_ascii": "Lincang",
    "admin_name": "Yunnan",
    "lat": "23.8840",
    "lng": "100.0890",
    "id": "1156044130"
  },
  {
    "city": "Haikou",
    "city_ascii": "Haikou",
    "admin_name": "Hainan",
    "lat": "20.0186",
    "lng": "110.3488",
    "id": "1156183327"
  },
  {
    "city": "Yuxi",
    "city_ascii": "Yuxi",
    "admin_name": "Yunnan",
    "lat": "24.3470",
    "lng": "102.5270",
    "id": "1156682309"
  },
  {
    "city": "Xining",
    "city_ascii": "Xining",
    "admin_name": "Qinghai",
    "lat": "36.6224",
    "lng": "101.7804",
    "id": "1156081448"
  },
  {
    "city": "Jincheng",
    "city_ascii": "Jincheng",
    "admin_name": "Shanxi",
    "lat": "35.4910",
    "lng": "112.8520",
    "id": "1156163376"
  },
  {
    "city": "Dandong",
    "city_ascii": "Dandong",
    "admin_name": "Liaoning",
    "lat": "40.1167",
    "lng": "124.3833",
    "id": "1156178316"
  },
  {
    "city": "Yan’an",
    "city_ascii": "Yan'an",
    "admin_name": "Shaanxi",
    "lat": "36.6500",
    "lng": "109.4940",
    "id": "1156546342"
  },
  {
    "city": "Qinbaling",
    "city_ascii": "Qinbaling",
    "admin_name": "Gansu",
    "lat": "35.7091",
    "lng": "107.6436",
    "id": "1156032582"
  },
  {
    "city": "Gaoping",
    "city_ascii": "Gaoping",
    "admin_name": "Sichuan",
    "lat": "30.7824",
    "lng": "106.1281",
    "id": "1156522457"
  },
  {
    "city": "Taizhou",
    "city_ascii": "Taizhou",
    "admin_name": "Zhejiang",
    "lat": "28.6557",
    "lng": "121.4208",
    "id": "1156322307"
  },
  {
    "city": "Ma’anshan",
    "city_ascii": "Ma'anshan",
    "admin_name": "Anhui",
    "lat": "31.6690",
    "lng": "118.5070",
    "id": "1156847452"
  },
  {
    "city": "Jiamusi",
    "city_ascii": "Jiamusi",
    "admin_name": "Heilongjiang",
    "lat": "46.8000",
    "lng": "130.3190",
    "id": "1156350864"
  },
  {
    "city": "Lishui",
    "city_ascii": "Lishui",
    "admin_name": "Zhejiang",
    "lat": "28.4680",
    "lng": "119.9230",
    "id": "1156858793"
  },
  {
    "city": "Chongzuo",
    "city_ascii": "Chongzuo",
    "admin_name": "Guangxi",
    "lat": "22.3770",
    "lng": "107.3650",
    "id": "1156438670"
  },
  {
    "city": "Laibin",
    "city_ascii": "Laibin",
    "admin_name": "Guangxi",
    "lat": "23.7501",
    "lng": "109.2212",
    "id": "1156925734"
  },
  {
    "city": "Qingyang",
    "city_ascii": "Qingyang",
    "admin_name": "Fujian",
    "lat": "24.7816",
    "lng": "118.5517",
    "id": "1156273372"
  },
  {
    "city": "Shangzhou",
    "city_ascii": "Shangzhou",
    "admin_name": "Shaanxi",
    "lat": "33.8734",
    "lng": "109.9186",
    "id": "1156091241"
  },
  {
    "city": "Shengli",
    "city_ascii": "Shengli",
    "admin_name": "Shandong",
    "lat": "37.4340",
    "lng": "118.6746",
    "id": "1156672254"
  },
  {
    "city": "Sanmenxia",
    "city_ascii": "Sanmenxia",
    "admin_name": "Henan",
    "lat": "34.7732",
    "lng": "111.2004",
    "id": "1156529682"
  },
  {
    "city": "Hezhou",
    "city_ascii": "Hezhou",
    "admin_name": "Guangxi",
    "lat": "24.4042",
    "lng": "111.5672",
    "id": "1156459799"
  },
  {
    "city": "Puning",
    "city_ascii": "Puning",
    "admin_name": "Guangdong",
    "lat": "23.2980",
    "lng": "116.1660",
    "id": "1156756494"
  },
  {
    "city": "Huaibei",
    "city_ascii": "Huaibei",
    "admin_name": "Anhui",
    "lat": "33.9560",
    "lng": "116.7980",
    "id": "1156142626"
  },
  {
    "city": "Songjiang",
    "city_ascii": "Songjiang",
    "admin_name": "Shanghai",
    "lat": "31.0058",
    "lng": "121.2333",
    "id": "1156187493"
  },
  {
    "city": "Yinchuan",
    "city_ascii": "Yinchuan",
    "admin_name": "Ningxia",
    "lat": "38.4850",
    "lng": "106.2250",
    "id": "1156359072"
  },
  {
    "city": "Fushun",
    "city_ascii": "Fushun",
    "admin_name": "Liaoning",
    "lat": "41.8810",
    "lng": "123.9570",
    "id": "1156857743"
  },
  {
    "city": "Pingliang",
    "city_ascii": "Pingliang",
    "admin_name": "Gansu",
    "lat": "35.5424",
    "lng": "106.6649",
    "id": "1156216904"
  },
  {
    "city": "Siping",
    "city_ascii": "Siping",
    "admin_name": "Jilin",
    "lat": "43.1668",
    "lng": "124.3506",
    "id": "1156063295"
  },
  {
    "city": "Pingxiang",
    "city_ascii": "Pingxiang",
    "admin_name": "Jiangxi",
    "lat": "27.6590",
    "lng": "113.8870",
    "id": "1156066465"
  },
  {
    "city": "Shuyangzha",
    "city_ascii": "Shuyangzha",
    "admin_name": "Jiangsu",
    "lat": "34.1299",
    "lng": "118.7734",
    "id": "1156051957"
  },
  {
    "city": "Beihai",
    "city_ascii": "Beihai",
    "admin_name": "Guangxi",
    "lat": "21.4810",
    "lng": "109.1200",
    "id": "1156421449"
  },
  {
    "city": "Sanzhou",
    "city_ascii": "Sanzhou",
    "admin_name": "Chongqing",
    "lat": "30.8200",
    "lng": "108.4000",
    "id": "1156025536"
  },
  {
    "city": "Ximeicun",
    "city_ascii": "Ximeicun",
    "admin_name": "Fujian",
    "lat": "24.9612",
    "lng": "118.3849",
    "id": "1156173813"
  },
  {
    "city": "Yushan",
    "city_ascii": "Yushan",
    "admin_name": "Jiangsu",
    "lat": "31.3220",
    "lng": "120.9850",
    "id": "1156245000"
  },
  {
    "city": "Fuxin",
    "city_ascii": "Fuxin",
    "admin_name": "Liaoning",
    "lat": "42.0220",
    "lng": "121.6700",
    "id": "1156141954"
  },
  {
    "city": "Jingdezhen",
    "city_ascii": "Jingdezhen",
    "admin_name": "Jiangxi",
    "lat": "29.2917",
    "lng": "117.1986",
    "id": "1156038165"
  },
  {
    "city": "Liaoyang",
    "city_ascii": "Liaoyang",
    "admin_name": "Liaoning",
    "lat": "41.2790",
    "lng": "123.1760",
    "id": "1156202749"
  },
  {
    "city": "Jiangyin",
    "city_ascii": "Jiangyin",
    "admin_name": "Jiangsu",
    "lat": "31.8390",
    "lng": "120.2950",
    "id": "1156033234"
  },
  {
    "city": "Shuozhou",
    "city_ascii": "Shuozhou",
    "admin_name": "Shanxi",
    "lat": "39.3317",
    "lng": "112.4329",
    "id": "1156227167"
  },
  {
    "city": "Chengtangcun",
    "city_ascii": "Chengtangcun",
    "admin_name": "Shandong",
    "lat": "35.0833",
    "lng": "117.1500",
    "id": "1156883901"
  },
  {
    "city": "Hebi",
    "city_ascii": "Hebi",
    "admin_name": "Henan",
    "lat": "35.7480",
    "lng": "114.2970",
    "id": "1156114258"
  },
  {
    "city": "Huzhou",
    "city_ascii": "Huzhou",
    "admin_name": "Zhejiang",
    "lat": "30.8925",
    "lng": "120.0875",
    "id": "1156335543"
  },
  {
    "city": "Baicheng",
    "city_ascii": "Baicheng",
    "admin_name": "Jilin",
    "lat": "45.6200",
    "lng": "122.8380",
    "id": "1156435764"
  },
  {
    "city": "Shaoyang",
    "city_ascii": "Shaoyang",
    "admin_name": "Jiangsu",
    "lat": "32.9120",
    "lng": "119.8526",
    "id": "1156668366"
  },
  {
    "city": "Jiaxing",
    "city_ascii": "Jiaxing",
    "admin_name": "Zhejiang",
    "lat": "30.7470",
    "lng": "120.7560",
    "id": "1156491661"
  },
  {
    "city": "Zhangjiajie",
    "city_ascii": "Zhangjiajie",
    "admin_name": "Hunan",
    "lat": "29.1170",
    "lng": "110.4790",
    "id": "1156072884"
  },
  {
    "city": "Baiyin",
    "city_ascii": "Baiyin",
    "admin_name": "Gansu",
    "lat": "36.5451",
    "lng": "104.1389",
    "id": "1156140738"
  },
  {
    "city": "Guiping",
    "city_ascii": "Guiping",
    "admin_name": "Guangxi",
    "lat": "23.4000",
    "lng": "110.0833",
    "id": "1156165517"
  },
  {
    "city": "Changshu",
    "city_ascii": "Changshu",
    "admin_name": "Jiangsu",
    "lat": "31.6560",
    "lng": "120.7530",
    "id": "1156901538"
  },
  {
    "city": "Jixi",
    "city_ascii": "Jixi",
    "admin_name": "Heilongjiang",
    "lat": "45.2950",
    "lng": "130.9690",
    "id": "1156393765"
  },
  {
    "city": "Xushan",
    "city_ascii": "Xushan",
    "admin_name": "Zhejiang",
    "lat": "30.1667",
    "lng": "121.2333",
    "id": "1156046916"
  },
  {
    "city": "Wuwei",
    "city_ascii": "Wuwei",
    "admin_name": "Gansu",
    "lat": "37.9290",
    "lng": "102.6380",
    "id": "1156760291"
  },
  {
    "city": "Jinhua",
    "city_ascii": "Jinhua",
    "admin_name": "Zhejiang",
    "lat": "29.0790",
    "lng": "119.6470",
    "id": "1156547188"
  },
  {
    "city": "Pizhou",
    "city_ascii": "Pizhou",
    "admin_name": "Jiangsu",
    "lat": "34.3980",
    "lng": "117.8900",
    "id": "1156114238"
  },
  {
    "city": "Yangshe",
    "city_ascii": "Yangshe",
    "admin_name": "Jiangsu",
    "lat": "31.8767",
    "lng": "120.5560",
    "id": "1156203000"
  },
  {
    "city": "Yucheng",
    "city_ascii": "Yucheng",
    "admin_name": "Sichuan",
    "lat": "30.0100",
    "lng": "103.0415",
    "id": "1156817119"
  },
  {
    "city": "Rui’an",
    "city_ascii": "Rui'an",
    "admin_name": "Zhejiang",
    "lat": "27.7833",
    "lng": "120.6250",
    "id": "1156993705"
  },
  {
    "city": "Wenling",
    "city_ascii": "Wenling",
    "admin_name": "Zhejiang",
    "lat": "28.3667",
    "lng": "121.3667",
    "id": "1156052493"
  },
  {
    "city": "Lianjiang",
    "city_ascii": "Lianjiang",
    "admin_name": "Guangdong",
    "lat": "21.7333",
    "lng": "110.2833",
    "id": "1156944106"
  },
  {
    "city": "Chizhou",
    "city_ascii": "Chizhou",
    "admin_name": "Anhui",
    "lat": "30.6654",
    "lng": "117.4916",
    "id": "1156131504"
  },
  {
    "city": "Huangshan",
    "city_ascii": "Huangshan",
    "admin_name": "Anhui",
    "lat": "29.7149",
    "lng": "118.3376",
    "id": "1156527426"
  },
  {
    "city": "Gaozhou",
    "city_ascii": "Gaozhou",
    "admin_name": "Guangdong",
    "lat": "21.9244",
    "lng": "110.8422",
    "id": "1156785303"
  },
  {
    "city": "Benxi",
    "city_ascii": "Benxi",
    "admin_name": "Liaoning",
    "lat": "41.3039",
    "lng": "123.7649",
    "id": "1156097909"
  },
  {
    "city": "Leizhou",
    "city_ascii": "Leizhou",
    "admin_name": "Guangdong",
    "lat": "20.9143",
    "lng": "110.0967",
    "id": "1156863840"
  },
  {
    "city": "Yangquan",
    "city_ascii": "Yangquan",
    "admin_name": "Shanxi",
    "lat": "37.8571",
    "lng": "113.5804",
    "id": "1156157844"
  },
  {
    "city": "Fuqing",
    "city_ascii": "Fuqing",
    "admin_name": "Fujian",
    "lat": "25.7167",
    "lng": "119.3833",
    "id": "1156893569"
  },
  {
    "city": "Xintai",
    "city_ascii": "Xintai",
    "admin_name": "Shandong",
    "lat": "35.9090",
    "lng": "117.7680",
    "id": "1156761230"
  },
  {
    "city": "Wusong",
    "city_ascii": "Wusong",
    "admin_name": "Anhui",
    "lat": "30.9450",
    "lng": "117.8110",
    "id": "1156264408"
  },
  {
    "city": "Tongling",
    "city_ascii": "Tongling",
    "admin_name": "Anhui",
    "lat": "30.9456",
    "lng": "117.8114",
    "id": "1156629570"
  },
  {
    "city": "Kuaidamao",
    "city_ascii": "Kuaidamao",
    "admin_name": "Jilin",
    "lat": "41.7283",
    "lng": "125.9397",
    "id": "1156106507"
  },
  {
    "city": "Huazhou",
    "city_ascii": "Huazhou",
    "admin_name": "Guangdong",
    "lat": "21.6640",
    "lng": "110.6396",
    "id": "1156282637"
  },
  {
    "city": "Wuzhong",
    "city_ascii": "Wuzhong",
    "admin_name": "Ningxia",
    "lat": "37.9978",
    "lng": "106.1986",
    "id": "1156139322"
  },
  {
    "city": "Xiantao",
    "city_ascii": "Xiantao",
    "admin_name": "Hubei",
    "lat": "30.3280",
    "lng": "113.4430",
    "id": "1156216927"
  },
  {
    "city": "Huaiyin",
    "city_ascii": "Huaiyin",
    "admin_name": "Jiangsu",
    "lat": "33.5819",
    "lng": "119.0280",
    "id": "1156662372"
  },
  {
    "city": "Yutan",
    "city_ascii": "Yutan",
    "admin_name": "Hunan",
    "lat": "28.2780",
    "lng": "112.5520",
    "id": "1156592042"
  },
  {
    "city": "Dayan",
    "city_ascii": "Dayan",
    "admin_name": "Yunnan",
    "lat": "26.8552",
    "lng": "100.2259",
    "id": "1156828380"
  },
  {
    "city": "Laiwu",
    "city_ascii": "Laiwu",
    "admin_name": "Shandong",
    "lat": "36.1833",
    "lng": "117.6667",
    "id": "1156207332"
  },
  {
    "city": "Huazhou",
    "city_ascii": "Huazhou",
    "admin_name": "Henan",
    "lat": "32.6880",
    "lng": "112.0870",
    "id": "1156796734"
  },
  {
    "city": "Rucheng",
    "city_ascii": "Rucheng",
    "admin_name": "Jiangsu",
    "lat": "32.2460",
    "lng": "120.5910",
    "id": "1156323529"
  },
  {
    "city": "Yongcheng",
    "city_ascii": "Yongcheng",
    "admin_name": "Henan",
    "lat": "33.9299",
    "lng": "116.4500",
    "id": "1156841802"
  },
  {
    "city": "Yiwu",
    "city_ascii": "Yiwu",
    "admin_name": "Zhejiang",
    "lat": "29.3069",
    "lng": "120.0753",
    "id": "1156078044"
  },
  {
    "city": "Dadukou",
    "city_ascii": "Dadukou",
    "admin_name": "Sichuan",
    "lat": "26.5824",
    "lng": "101.7184",
    "id": "1156901342"
  },
  {
    "city": "Lingcheng",
    "city_ascii": "Lingcheng",
    "admin_name": "Guangxi",
    "lat": "22.7080",
    "lng": "110.3540",
    "id": "1156202191"
  },
  {
    "city": "Shuangyashan",
    "city_ascii": "Shuangyashan",
    "admin_name": "Heilongjiang",
    "lat": "46.6762",
    "lng": "131.1416",
    "id": "1156245904"
  },
  {
    "city": "Pingdu",
    "city_ascii": "Pingdu",
    "admin_name": "Shandong",
    "lat": "36.7769",
    "lng": "119.9884",
    "id": "1156157078"
  },
  {
    "city": "Rongcheng",
    "city_ascii": "Rongcheng",
    "admin_name": "Yunnan",
    "lat": "26.2180",
    "lng": "104.1030",
    "id": "1156122888"
  },
  {
    "city": "Xinyu",
    "city_ascii": "Xinyu",
    "admin_name": "Jiangxi",
    "lat": "27.8186",
    "lng": "114.9167",
    "id": "1156138735"
  },
  {
    "city": "Xinhualu",
    "city_ascii": "Xinhualu",
    "admin_name": "Henan",
    "lat": "34.3964",
    "lng": "113.7402",
    "id": "1156544851"
  },
  {
    "city": "Guankou",
    "city_ascii": "Guankou",
    "admin_name": "Hunan",
    "lat": "28.1637",
    "lng": "113.6433",
    "id": "1156249346"
  },
  {
    "city": "Jingling",
    "city_ascii": "Jingling",
    "admin_name": "Hubei",
    "lat": "30.6640",
    "lng": "113.1670",
    "id": "1156060544"
  },
  {
    "city": "Zhuji",
    "city_ascii": "Zhuji",
    "admin_name": "Zhejiang",
    "lat": "29.7167",
    "lng": "120.2333",
    "id": "1156504227"
  },
  {
    "city": "Yingtan",
    "city_ascii": "Yingtan",
    "admin_name": "Jiangxi",
    "lat": "28.2721",
    "lng": "117.0395",
    "id": "1156301061"
  },
  {
    "city": "Guyuan",
    "city_ascii": "Guyuan",
    "admin_name": "Ningxia",
    "lat": "36.0100",
    "lng": "106.2570",
    "id": "1156817541"
  },
  {
    "city": "Leiyang",
    "city_ascii": "Leiyang",
    "admin_name": "Hunan",
    "lat": "26.4223",
    "lng": "112.8598",
    "id": "1156057789"
  },
  {
    "city": "Zhangye",
    "city_ascii": "Zhangye",
    "admin_name": "Gansu",
    "lat": "38.9248",
    "lng": "100.4499",
    "id": "1156180353"
  },
  {
    "city": "Rongcheng",
    "city_ascii": "Rongcheng",
    "admin_name": "Hubei",
    "lat": "29.8402",
    "lng": "112.9048",
    "id": "1156102432"
  },
  {
    "city": "Yingchuan",
    "city_ascii": "Yingchuan",
    "admin_name": "Henan",
    "lat": "34.1420",
    "lng": "113.4890",
    "id": "1156748426"
  },
  {
    "city": "Dingzhou",
    "city_ascii": "Dingzhou",
    "admin_name": "Hebei",
    "lat": "38.5160",
    "lng": "114.9900",
    "id": "1156656582"
  },
  {
    "city": "Yuyao",
    "city_ascii": "Yuyao",
    "admin_name": "Zhejiang",
    "lat": "30.0500",
    "lng": "121.1500",
    "id": "1156221984"
  },
  {
    "city": "Yicheng",
    "city_ascii": "Yicheng",
    "admin_name": "Jiangsu",
    "lat": "31.3600",
    "lng": "119.8150",
    "id": "1156292419"
  },
  {
    "city": "Ezhou",
    "city_ascii": "Ezhou",
    "admin_name": "Hubei",
    "lat": "30.3914",
    "lng": "114.8949",
    "id": "1156414637"
  },
  {
    "city": "Zhufeng",
    "city_ascii": "Zhufeng",
    "admin_name": "Shandong",
    "lat": "36.0000",
    "lng": "119.4167",
    "id": "1156522825"
  },
  {
    "city": "Haicheng",
    "city_ascii": "Haicheng",
    "admin_name": "Liaoning",
    "lat": "40.8824",
    "lng": "122.6852",
    "id": "1156052713"
  },
  {
    "city": "Jianguang",
    "city_ascii": "Jianguang",
    "admin_name": "Jiangxi",
    "lat": "28.1958",
    "lng": "115.7833",
    "id": "1156545200"
  },
  {
    "city": "Xibeijie",
    "city_ascii": "Xibeijie",
    "admin_name": "Gansu",
    "lat": "39.7334",
    "lng": "98.4943",
    "id": "1156960560"
  },
  {
    "city": "Zhongwei",
    "city_ascii": "Zhongwei",
    "admin_name": "Ningxia",
    "lat": "37.5002",
    "lng": "105.1968",
    "id": "1156956616"
  },
  {
    "city": "Jiancheng",
    "city_ascii": "Jiancheng",
    "admin_name": "Sichuan",
    "lat": "30.3800",
    "lng": "104.5300",
    "id": "1156775521"
  },
  {
    "city": "Shouguang",
    "city_ascii": "Shouguang",
    "admin_name": "Shandong",
    "lat": "36.8570",
    "lng": "118.7910",
    "id": "1156787809"
  },
  {
    "city": "Liangshi",
    "city_ascii": "Liangshi",
    "admin_name": "Hunan",
    "lat": "27.2600",
    "lng": "111.7442",
    "id": "1156366507"
  },
  {
    "city": "Sanya",
    "city_ascii": "Sanya",
    "admin_name": "Hainan",
    "lat": "18.2533",
    "lng": "109.5036",
    "id": "1156373900"
  },
  {
    "city": "Linhai",
    "city_ascii": "Linhai",
    "admin_name": "Zhejiang",
    "lat": "28.8500",
    "lng": "121.1167",
    "id": "1156451663"
  },
  {
    "city": "Xinyi",
    "city_ascii": "Xinyi",
    "admin_name": "Guangdong",
    "lat": "22.3549",
    "lng": "110.9468",
    "id": "1156936644"
  },
  {
    "city": "Liaoyuan",
    "city_ascii": "Liaoyuan",
    "admin_name": "Jilin",
    "lat": "42.8880",
    "lng": "125.1447",
    "id": "1156249772"
  },
  {
    "city": "Taixing",
    "city_ascii": "Taixing",
    "admin_name": "Jiangsu",
    "lat": "32.1590",
    "lng": "120.0290",
    "id": "1156331200"
  },
  {
    "city": "Shuizhai",
    "city_ascii": "Shuizhai",
    "admin_name": "Henan",
    "lat": "33.4658",
    "lng": "114.8753",
    "id": "1156462734"
  },
  {
    "city": "Qianxi",
    "city_ascii": "Qianxi",
    "admin_name": "Guizhou",
    "lat": "27.0087",
    "lng": "106.0323",
    "id": "1156919716"
  },
  {
    "city": "Baishan",
    "city_ascii": "Baishan",
    "admin_name": "Jilin",
    "lat": "41.9440",
    "lng": "126.4147",
    "id": "1156960624"
  },
  {
    "city": "Huilong",
    "city_ascii": "Huilong",
    "admin_name": "Jiangsu",
    "lat": "31.8700",
    "lng": "121.7030",
    "id": "1156485081"
  },
  {
    "city": "Nada",
    "city_ascii": "Nada",
    "admin_name": "Hainan",
    "lat": "19.5209",
    "lng": "109.5808",
    "id": "1156911678"
  },
  {
    "city": "Fangchenggang",
    "city_ascii": "Fangchenggang",
    "admin_name": "Guangxi",
    "lat": "21.6867",
    "lng": "108.3547",
    "id": "1156532454"
  },
  {
    "city": "Kaiyuan",
    "city_ascii": "Kaiyuan",
    "admin_name": "Henan",
    "lat": "36.0193",
    "lng": "113.8600",
    "id": "1156441554"
  },
  {
    "city": "Yingcheng",
    "city_ascii": "Yingcheng",
    "admin_name": "Guangdong",
    "lat": "24.2100",
    "lng": "113.4010",
    "id": "1156012356"
  },
  {
    "city": "Luocheng",
    "city_ascii": "Luocheng",
    "admin_name": "Guangdong",
    "lat": "22.7689",
    "lng": "111.5697",
    "id": "1156138895"
  },
  {
    "city": "Meishan",
    "city_ascii": "Meishan",
    "admin_name": "Henan",
    "lat": "34.1670",
    "lng": "112.8440",
    "id": "1156023073"
  },
  {
    "city": "Xin’an",
    "city_ascii": "Xin'an",
    "admin_name": "Jiangsu",
    "lat": "34.2860",
    "lng": "118.3550",
    "id": "1156236053"
  },
  {
    "city": "Kashgar",
    "city_ascii": "Kashgar",
    "admin_name": "Xinjiang",
    "lat": "39.4681",
    "lng": "75.9938",
    "id": "1156113193"
  },
  {
    "city": "Qingzhou",
    "city_ascii": "Qingzhou",
    "admin_name": "Shandong",
    "lat": "36.6853",
    "lng": "118.4796",
    "id": "1156874864"
  },
  {
    "city": "Taishan",
    "city_ascii": "Taishan",
    "admin_name": "Guangdong",
    "lat": "22.2520",
    "lng": "112.7940",
    "id": "1156105450"
  },
  {
    "city": "Jiaozhou",
    "city_ascii": "Jiaozhou",
    "admin_name": "Shandong",
    "lat": "36.2647",
    "lng": "120.0334",
    "id": "1156752602"
  },
  {
    "city": "Wuchuan",
    "city_ascii": "Wuchuan",
    "admin_name": "Guangdong",
    "lat": "21.4410",
    "lng": "110.7790",
    "id": "1156198103"
  },
  {
    "city": "Wafangdian",
    "city_ascii": "Wafangdian",
    "admin_name": "Liaoning",
    "lat": "39.6271",
    "lng": "121.9796",
    "id": "1156476417"
  },
  {
    "city": "Hanchuan",
    "city_ascii": "Hanchuan",
    "admin_name": "Hubei",
    "lat": "30.6667",
    "lng": "113.8333",
    "id": "1156149248"
  },
  {
    "city": "Quzhou",
    "city_ascii": "Quzhou",
    "admin_name": "Zhejiang",
    "lat": "28.9702",
    "lng": "118.8593",
    "id": "1156180376"
  },
  {
    "city": "Wuchang",
    "city_ascii": "Wuchang",
    "admin_name": "Heilongjiang",
    "lat": "44.9240",
    "lng": "127.1580",
    "id": "1156065450"
  },
  {
    "city": "Hengzhou",
    "city_ascii": "Hengzhou",
    "admin_name": "Guangxi",
    "lat": "22.6799",
    "lng": "109.2614",
    "id": "1156041202"
  },
  {
    "city": "Feicheng",
    "city_ascii": "Feicheng",
    "admin_name": "Shandong",
    "lat": "36.1861",
    "lng": "116.7719",
    "id": "1156303834"
  },
  {
    "city": "Hegang",
    "city_ascii": "Hegang",
    "admin_name": "Heilongjiang",
    "lat": "47.3501",
    "lng": "130.2980",
    "id": "1156541759"
  },
  {
    "city": "Zaoyang",
    "city_ascii": "Zaoyang",
    "admin_name": "Hubei",
    "lat": "32.1290",
    "lng": "112.7720",
    "id": "1156197076"
  },
  {
    "city": "Dongtai",
    "city_ascii": "Dongtai",
    "admin_name": "Jiangsu",
    "lat": "32.7950",
    "lng": "120.5190",
    "id": "1156536785"
  },
  {
    "city": "Xishan",
    "city_ascii": "Xishan",
    "admin_name": "Hunan",
    "lat": "27.6461",
    "lng": "113.4970",
    "id": "1156155575"
  },
  {
    "city": "Zhoushan",
    "city_ascii": "Zhoushan",
    "admin_name": "Zhejiang",
    "lat": "29.9856",
    "lng": "122.2074",
    "id": "1156200283"
  },
  {
    "city": "Yichun",
    "city_ascii": "Yichun",
    "admin_name": "Heilongjiang",
    "lat": "47.7280",
    "lng": "128.8410",
    "id": "1156757274"
  },
  {
    "city": "Yangchun",
    "city_ascii": "Yangchun",
    "admin_name": "Guangdong",
    "lat": "22.1704",
    "lng": "111.7916",
    "id": "1156787307"
  },
  {
    "city": "Hai’an",
    "city_ascii": "Hai'an",
    "admin_name": "Jiangsu",
    "lat": "32.5350",
    "lng": "120.5630",
    "id": "1156332302"
  },
  {
    "city": "Daye",
    "city_ascii": "Daye",
    "admin_name": "Hubei",
    "lat": "30.0961",
    "lng": "114.9804",
    "id": "1156255811"
  },
  {
    "city": "Zhongxiang",
    "city_ascii": "Zhongxiang",
    "admin_name": "Hubei",
    "lat": "31.1680",
    "lng": "112.5880",
    "id": "1156631720"
  },
  {
    "city": "Gaomi",
    "city_ascii": "Gaomi",
    "admin_name": "Shandong",
    "lat": "36.3833",
    "lng": "119.7500",
    "id": "1156673331"
  },
  {
    "city": "Lhasa",
    "city_ascii": "Lhasa",
    "admin_name": "Tibet",
    "lat": "29.6534",
    "lng": "91.1719",
    "id": "1156369972"
  },
  {
    "city": "Gongzhuling",
    "city_ascii": "Gongzhuling",
    "admin_name": "Jilin",
    "lat": "43.5053",
    "lng": "124.8224",
    "id": "1156696810"
  },
  {
    "city": "Lianyuan",
    "city_ascii": "Lianyuan",
    "admin_name": "Hunan",
    "lat": "27.6920",
    "lng": "111.6640",
    "id": "1156490109"
  },
  {
    "city": "Shache",
    "city_ascii": "Shache",
    "admin_name": "Xinjiang",
    "lat": "38.4261",
    "lng": "77.2500",
    "id": "1156278934"
  },
  {
    "city": "Macheng",
    "city_ascii": "Macheng",
    "admin_name": "Hubei",
    "lat": "31.1730",
    "lng": "115.0080",
    "id": "1156949639"
  },
  {
    "city": "Anqiu",
    "city_ascii": "Anqiu",
    "admin_name": "Shandong",
    "lat": "36.4780",
    "lng": "119.2190",
    "id": "1156592047"
  },
  {
    "city": "Yuci",
    "city_ascii": "Yuci",
    "admin_name": "Shanxi",
    "lat": "37.6823",
    "lng": "112.7281",
    "id": "1156177817"
  },
  {
    "city": "Dehui",
    "city_ascii": "Dehui",
    "admin_name": "Jilin",
    "lat": "44.5350",
    "lng": "125.7030",
    "id": "1156898134"
  },
  {
    "city": "Yushu",
    "city_ascii": "Yushu",
    "admin_name": "Jilin",
    "lat": "44.8260",
    "lng": "126.5500",
    "id": "1156326773"
  },
  {
    "city": "Qingping",
    "city_ascii": "Qingping",
    "admin_name": "Henan",
    "lat": "34.5390",
    "lng": "113.3910",
    "id": "1156033855"
  },
  {
    "city": "Rongjiawan",
    "city_ascii": "Rongjiawan",
    "admin_name": "Hunan",
    "lat": "29.1500",
    "lng": "113.1024",
    "id": "1156795164"
  },
  {
    "city": "Weichanglu",
    "city_ascii": "Weichanglu",
    "admin_name": "Shandong",
    "lat": "37.1792",
    "lng": "119.9333",
    "id": "1156194600"
  },
  {
    "city": "Renqiu",
    "city_ascii": "Renqiu",
    "admin_name": "Hebei",
    "lat": "38.6860",
    "lng": "116.0840",
    "id": "1156943939"
  },
  {
    "city": "Wutong",
    "city_ascii": "Wutong",
    "admin_name": "Zhejiang",
    "lat": "30.6333",
    "lng": "120.5333",
    "id": "1156182309"
  },
  {
    "city": "Wu’an",
    "city_ascii": "Wu'an",
    "admin_name": "Hebei",
    "lat": "36.6970",
    "lng": "114.2040",
    "id": "1156729960"
  },
  {
    "city": "Xiashi",
    "city_ascii": "Xiashi",
    "admin_name": "Zhejiang",
    "lat": "30.5333",
    "lng": "120.6833",
    "id": "1156080077"
  },
  {
    "city": "Danyang",
    "city_ascii": "Danyang",
    "admin_name": "Jiangsu",
    "lat": "32.0000",
    "lng": "119.5860",
    "id": "1156578273"
  },
  {
    "city": "Dongyang",
    "city_ascii": "Dongyang",
    "admin_name": "Zhejiang",
    "lat": "29.2667",
    "lng": "120.2167",
    "id": "1156259752"
  },
  {
    "city": "Qamdo",
    "city_ascii": "Qamdo",
    "admin_name": "Tibet",
    "lat": "31.1430",
    "lng": "97.1700",
    "id": "1156277802"
  },
  {
    "city": "Hejian",
    "city_ascii": "Hejian",
    "admin_name": "Hebei",
    "lat": "38.4466",
    "lng": "116.0995",
    "id": "1156405731"
  },
  {
    "city": "Laiyang",
    "city_ascii": "Laiyang",
    "admin_name": "Shandong",
    "lat": "36.9758",
    "lng": "120.7136",
    "id": "1156207330"
  },
  {
    "city": "Wuxi",
    "city_ascii": "Wuxi",
    "admin_name": "Hunan",
    "lat": "26.5800",
    "lng": "111.8410",
    "id": "1156698595"
  },
  {
    "city": "Yiyang",
    "city_ascii": "Yiyang",
    "admin_name": "Hunan",
    "lat": "26.4221",
    "lng": "112.3999",
    "id": "1156142520"
  },
  {
    "city": "Puxi",
    "city_ascii": "Puxi",
    "admin_name": "Henan",
    "lat": "35.2125",
    "lng": "114.7350",
    "id": "1156046618"
  },
  {
    "city": "Zijinglu",
    "city_ascii": "Zijinglu",
    "admin_name": "Henan",
    "lat": "34.7667",
    "lng": "112.9667",
    "id": "1156086381"
  },
  {
    "city": "Xingyi",
    "city_ascii": "Xingyi",
    "admin_name": "Guizhou",
    "lat": "25.0920",
    "lng": "104.8955",
    "id": "1156255316"
  },
  {
    "city": "Xingcheng",
    "city_ascii": "Xingcheng",
    "admin_name": "Guangdong",
    "lat": "24.1347",
    "lng": "115.7300",
    "id": "1156913008"
  },
  {
    "city": "Ailan Mubage",
    "city_ascii": "Ailan Mubage",
    "admin_name": "Xinjiang",
    "lat": "43.9080",
    "lng": "81.2777",
    "id": "1156279608"
  },
  {
    "city": "Fuyang",
    "city_ascii": "Fuyang",
    "admin_name": "Zhejiang",
    "lat": "30.0553",
    "lng": "119.9500",
    "id": "1156340393"
  },
  {
    "city": "Korla",
    "city_ascii": "Korla",
    "admin_name": "Xinjiang",
    "lat": "41.7259",
    "lng": "86.1746",
    "id": "1156965620"
  },
  {
    "city": "Qingnian",
    "city_ascii": "Qingnian",
    "admin_name": "Shandong",
    "lat": "36.8494",
    "lng": "115.7061",
    "id": "1156689964"
  },
  {
    "city": "Sanhe",
    "city_ascii": "Sanhe",
    "admin_name": "Hebei",
    "lat": "40.0167",
    "lng": "117.0833",
    "id": "1156476348"
  },
  {
    "city": "Leping",
    "city_ascii": "Leping",
    "admin_name": "Jiangxi",
    "lat": "28.9780",
    "lng": "117.1520",
    "id": "1156705082"
  },
  {
    "city": "Lichuan",
    "city_ascii": "Lichuan",
    "admin_name": "Hubei",
    "lat": "30.2910",
    "lng": "108.9364",
    "id": "1156302762"
  },
  {
    "city": "Licheng",
    "city_ascii": "Licheng",
    "admin_name": "Jiangsu",
    "lat": "31.4306",
    "lng": "119.4788",
    "id": "1156933354"
  },
  {
    "city": "Zhuanghe",
    "city_ascii": "Zhuanghe",
    "admin_name": "Liaoning",
    "lat": "39.6810",
    "lng": "122.9670",
    "id": "1156410076"
  },
  {
    "city": "Chengguan",
    "city_ascii": "Chengguan",
    "admin_name": "Henan",
    "lat": "35.4623",
    "lng": "113.8054",
    "id": "1156866870"
  },
  {
    "city": "Lingbao Chengguanzhen",
    "city_ascii": "Lingbao Chengguanzhen",
    "admin_name": "Henan",
    "lat": "34.5176",
    "lng": "110.8942",
    "id": "1156837145"
  },
  {
    "city": "Taihe",
    "city_ascii": "Taihe",
    "admin_name": "Sichuan",
    "lat": "30.8710",
    "lng": "105.3880",
    "id": "1156281983"
  },
  {
    "city": "Zhongba",
    "city_ascii": "Zhongba",
    "admin_name": "Sichuan",
    "lat": "31.7710",
    "lng": "104.7550",
    "id": "1156515985"
  },
  {
    "city": "Sizhan",
    "city_ascii": "Sizhan",
    "admin_name": "Ningxia",
    "lat": "38.9846",
    "lng": "106.3828",
    "id": "1156450911"
  },
  {
    "city": "Suohe",
    "city_ascii": "Suohe",
    "admin_name": "Henan",
    "lat": "34.7833",
    "lng": "113.3500",
    "id": "1156236948"
  },
  {
    "city": "Xiangxiang",
    "city_ascii": "Xiangxiang",
    "admin_name": "Hunan",
    "lat": "27.7186",
    "lng": "112.5502",
    "id": "1156524101"
  },
  {
    "city": "Songyang",
    "city_ascii": "Songyang",
    "admin_name": "Henan",
    "lat": "34.4553",
    "lng": "113.0253",
    "id": "1156143149"
  },
  {
    "city": "Qian’an",
    "city_ascii": "Qian'an",
    "admin_name": "Hebei",
    "lat": "39.9990",
    "lng": "118.7010",
    "id": "1156315498"
  },
  {
    "city": "Shuangqiao",
    "city_ascii": "Shuangqiao",
    "admin_name": "Henan",
    "lat": "35.0670",
    "lng": "112.6020",
    "id": "1156968311"
  },
  {
    "city": "Chaohucun",
    "city_ascii": "Chaohucun",
    "admin_name": "Anhui",
    "lat": "31.6244",
    "lng": "117.8902",
    "id": "1156671495"
  },
  {
    "city": "Zouping",
    "city_ascii": "Zouping",
    "admin_name": "Shandong",
    "lat": "36.8630",
    "lng": "117.7430",
    "id": "1156817518"
  },
  {
    "city": "Cencheng",
    "city_ascii": "Cencheng",
    "admin_name": "Guangxi",
    "lat": "22.9167",
    "lng": "111.0000",
    "id": "1156000460"
  },
  {
    "city": "Guli",
    "city_ascii": "Guli",
    "admin_name": "Zhejiang",
    "lat": "28.9000",
    "lng": "120.0333",
    "id": "1156383681"
  },
  {
    "city": "Laixi",
    "city_ascii": "Laixi",
    "admin_name": "Shandong",
    "lat": "36.8667",
    "lng": "120.5333",
    "id": "1156973102"
  },
  {
    "city": "Changsha",
    "city_ascii": "Changsha",
    "admin_name": "Guangdong",
    "lat": "22.3773",
    "lng": "112.6982",
    "id": "1156011120"
  },
  {
    "city": "Shihezi",
    "city_ascii": "Shihezi",
    "admin_name": "Xinjiang",
    "lat": "44.3054",
    "lng": "86.0804",
    "id": "1156232270"
  },
  {
    "city": "Xichang",
    "city_ascii": "Xichang",
    "admin_name": "Sichuan",
    "lat": "27.8944",
    "lng": "102.2644",
    "id": "1156116456"
  },
  {
    "city": "Guangshui",
    "city_ascii": "Guangshui",
    "admin_name": "Hubei",
    "lat": "31.6170",
    "lng": "113.8260",
    "id": "1156267419"
  },
  {
    "city": "Gaoyou",
    "city_ascii": "Gaoyou",
    "admin_name": "Jiangsu",
    "lat": "32.8450",
    "lng": "119.5080",
    "id": "1156235854"
  },
  {
    "city": "Chengxiang",
    "city_ascii": "Chengxiang",
    "admin_name": "Jiangsu",
    "lat": "31.5640",
    "lng": "121.1740",
    "id": "1156254788"
  },
  {
    "city": "Zunhua",
    "city_ascii": "Zunhua",
    "admin_name": "Hebei",
    "lat": "40.1890",
    "lng": "117.9660",
    "id": "1156756935"
  },
  {
    "city": "Tongchuan",
    "city_ascii": "Tongchuan",
    "admin_name": "Shaanxi",
    "lat": "34.8970",
    "lng": "108.9450",
    "id": "1156849608"
  },
  {
    "city": "Xindi",
    "city_ascii": "Xindi",
    "admin_name": "Hubei",
    "lat": "29.8270",
    "lng": "113.4760",
    "id": "1156263165"
  },
  {
    "city": "Taihecun",
    "city_ascii": "Taihecun",
    "admin_name": "Heilongjiang",
    "lat": "45.7710",
    "lng": "131.0030",
    "id": "1156875484"
  },
  {
    "city": "Jianshe",
    "city_ascii": "Jianshe",
    "admin_name": "Henan",
    "lat": "34.2137",
    "lng": "113.7629",
    "id": "1156444449"
  },
  {
    "city": "Shishi",
    "city_ascii": "Shishi",
    "admin_name": "Fujian",
    "lat": "24.7167",
    "lng": "118.7000",
    "id": "1156077046"
  },
  {
    "city": "Xigazê",
    "city_ascii": "Xigaze",
    "admin_name": "Tibet",
    "lat": "29.2500",
    "lng": "88.8833",
    "id": "1156107208"
  },
  {
    "city": "Shanhu",
    "city_ascii": "Shanhu",
    "admin_name": "Zhejiang",
    "lat": "29.6000",
    "lng": "120.8167",
    "id": "1156029691"
  },
  {
    "city": "Pinghu",
    "city_ascii": "Pinghu",
    "admin_name": "Zhejiang",
    "lat": "30.7000",
    "lng": "121.0167",
    "id": "1156720536"
  },
  {
    "city": "Guankou",
    "city_ascii": "Guankou",
    "admin_name": "Sichuan",
    "lat": "30.9880",
    "lng": "103.6470",
    "id": "1156503907"
  },
  {
    "city": "Yatou",
    "city_ascii": "Yatou",
    "admin_name": "Shandong",
    "lat": "37.1653",
    "lng": "122.4867",
    "id": "1156009046"
  },
  {
    "city": "Zhaodong",
    "city_ascii": "Zhaodong",
    "admin_name": "Heilongjiang",
    "lat": "46.0510",
    "lng": "125.9620",
    "id": "1156601489"
  },
  {
    "city": "Puyang Chengguanzhen",
    "city_ascii": "Puyang Chengguanzhen",
    "admin_name": "Henan",
    "lat": "35.7004",
    "lng": "114.9800",
    "id": "1156103317"
  },
  {
    "city": "Jingcheng",
    "city_ascii": "Jingcheng",
    "admin_name": "Jiangsu",
    "lat": "32.0090",
    "lng": "120.2630",
    "id": "1156033208"
  },
  {
    "city": "Dali",
    "city_ascii": "Dali",
    "admin_name": "Yunnan",
    "lat": "25.6811",
    "lng": "100.3003",
    "id": "1156840276"
  },
  {
    "city": "Zhongshu",
    "city_ascii": "Zhongshu",
    "admin_name": "Guizhou",
    "lat": "27.7919",
    "lng": "106.4013",
    "id": "1156658422"
  },
  {
    "city": "Songzi",
    "city_ascii": "Songzi",
    "admin_name": "Hubei",
    "lat": "30.1740",
    "lng": "111.7570",
    "id": "1156837705"
  },
  {
    "city": "Xiping",
    "city_ascii": "Xiping",
    "admin_name": "Yunnan",
    "lat": "25.6005",
    "lng": "103.8166",
    "id": "1156207794"
  },
  {
    "city": "Wuxue",
    "city_ascii": "Wuxue",
    "admin_name": "Hubei",
    "lat": "29.8440",
    "lng": "115.5610",
    "id": "1156027100"
  },
  {
    "city": "Jinghong",
    "city_ascii": "Jinghong",
    "admin_name": "Yunnan",
    "lat": "22.0090",
    "lng": "100.7970",
    "id": "1156181533"
  },
  {
    "city": "Wugang",
    "city_ascii": "Wugang",
    "admin_name": "Hunan",
    "lat": "26.7266",
    "lng": "110.6319",
    "id": "1156089788"
  },
  {
    "city": "Chuxiong",
    "city_ascii": "Chuxiong",
    "admin_name": "Yunnan",
    "lat": "25.0330",
    "lng": "101.5459",
    "id": "1156225985"
  },
  {
    "city": "Kaihua",
    "city_ascii": "Kaihua",
    "admin_name": "Yunnan",
    "lat": "23.3870",
    "lng": "104.2330",
    "id": "1156017759"
  },
  {
    "city": "Meilan",
    "city_ascii": "Meilan",
    "admin_name": "Hainan",
    "lat": "19.9990",
    "lng": "110.4030",
    "id": "1156736601"
  },
  {
    "city": "Bazhou",
    "city_ascii": "Bazhou",
    "admin_name": "Hebei",
    "lat": "39.1333",
    "lng": "116.3833",
    "id": "1156127276"
  },
  {
    "city": "Turpan",
    "city_ascii": "Turpan",
    "admin_name": "Xinjiang",
    "lat": "42.9512",
    "lng": "89.1895",
    "id": "1156573684"
  },
  {
    "city": "Langzhong",
    "city_ascii": "Langzhong",
    "admin_name": "Sichuan",
    "lat": "31.5580",
    "lng": "106.0050",
    "id": "1156930148"
  },
  {
    "city": "Qufu",
    "city_ascii": "Qufu",
    "admin_name": "Shandong",
    "lat": "35.5819",
    "lng": "116.9862",
    "id": "1156490037"
  },
  {
    "city": "Tengyue",
    "city_ascii": "Tengyue",
    "admin_name": "Yunnan",
    "lat": "25.0167",
    "lng": "98.4833",
    "id": "1156832866"
  },
  {
    "city": "Jurong",
    "city_ascii": "Jurong",
    "admin_name": "Jiangsu",
    "lat": "31.9460",
    "lng": "119.1640",
    "id": "1156897463"
  },
  {
    "city": "Yuhuan",
    "city_ascii": "Yuhuan",
    "admin_name": "Zhejiang",
    "lat": "28.1277",
    "lng": "121.2288",
    "id": "1156608968"
  },
  {
    "city": "Changping",
    "city_ascii": "Changping",
    "admin_name": "Beijing",
    "lat": "40.2248",
    "lng": "116.1944",
    "id": "1156166828"
  },
  {
    "city": "Ruiming",
    "city_ascii": "Ruiming",
    "admin_name": "Jiangxi",
    "lat": "25.8860",
    "lng": "116.0270",
    "id": "1156104573"
  },
  {
    "city": "Shenzhou",
    "city_ascii": "Shenzhou",
    "admin_name": "Hebei",
    "lat": "38.0020",
    "lng": "115.5600",
    "id": "1156921843"
  },
  {
    "city": "Dashiqiao",
    "city_ascii": "Dashiqiao",
    "admin_name": "Liaoning",
    "lat": "40.6167",
    "lng": "122.5167",
    "id": "1156141962"
  },
  {
    "city": "Zhuozhou",
    "city_ascii": "Zhuozhou",
    "admin_name": "Hebei",
    "lat": "39.4850",
    "lng": "115.9740",
    "id": "1156045160"
  },
  {
    "city": "Tianchang",
    "city_ascii": "Tianchang",
    "admin_name": "Anhui",
    "lat": "32.6811",
    "lng": "119.0137",
    "id": "1156770851"
  },
  {
    "city": "Xinji",
    "city_ascii": "Xinji",
    "admin_name": "Hebei",
    "lat": "37.9430",
    "lng": "115.2180",
    "id": "1156456552"
  },
  {
    "city": "Wenchang",
    "city_ascii": "Wenchang",
    "admin_name": "Anhui",
    "lat": "31.0358",
    "lng": "116.9367",
    "id": "1156574542"
  },
  {
    "city": "Sihui",
    "city_ascii": "Sihui",
    "admin_name": "Guangdong",
    "lat": "23.3265",
    "lng": "112.7338",
    "id": "1156609451"
  },
  {
    "city": "Luocheng",
    "city_ascii": "Luocheng",
    "admin_name": "Sichuan",
    "lat": "30.9900",
    "lng": "104.2500",
    "id": "1156180482"
  },
  {
    "city": "Wenlan",
    "city_ascii": "Wenlan",
    "admin_name": "Yunnan",
    "lat": "23.3961",
    "lng": "103.3649",
    "id": "1156385754"
  },
  {
    "city": "Fu’an",
    "city_ascii": "Fu'an",
    "admin_name": "Fujian",
    "lat": "27.1000",
    "lng": "119.6333",
    "id": "1156244234"
  },
  {
    "city": "Botou",
    "city_ascii": "Botou",
    "admin_name": "Hebei",
    "lat": "38.0833",
    "lng": "116.5833",
    "id": "1156018338"
  },
  {
    "city": "Jin’e",
    "city_ascii": "Jin'e",
    "admin_name": "Sichuan",
    "lat": "29.3394",
    "lng": "105.2875",
    "id": "1156661253"
  },
  {
    "city": "Xinxing",
    "city_ascii": "Xinxing",
    "admin_name": "Liaoning",
    "lat": "39.8667",
    "lng": "124.1500",
    "id": "1156258586"
  },
  {
    "city": "Qionghu",
    "city_ascii": "Qionghu",
    "admin_name": "Hunan",
    "lat": "28.9450",
    "lng": "112.5980",
    "id": "1156678111"
  },
  {
    "city": "Xinmin",
    "city_ascii": "Xinmin",
    "admin_name": "Liaoning",
    "lat": "41.9970",
    "lng": "122.8230",
    "id": "1156368551"
  },
  {
    "city": "Kuiju",
    "city_ascii": "Kuiju",
    "admin_name": "Shandong",
    "lat": "36.8667",
    "lng": "119.4000",
    "id": "1156174997"
  },
  {
    "city": "Jieshou",
    "city_ascii": "Jieshou",
    "admin_name": "Anhui",
    "lat": "33.2570",
    "lng": "115.3746",
    "id": "1156304827"
  },
  {
    "city": "Wencheng",
    "city_ascii": "Wencheng",
    "admin_name": "Hainan",
    "lat": "19.6170",
    "lng": "110.7551",
    "id": "1156985313"
  },
  {
    "city": "Miluo Chengguanzhen",
    "city_ascii": "Miluo Chengguanzhen",
    "admin_name": "Hunan",
    "lat": "28.7610",
    "lng": "113.1600",
    "id": "1156690651"
  },
  {
    "city": "Lanxi",
    "city_ascii": "Lanxi",
    "admin_name": "Zhejiang",
    "lat": "29.2080",
    "lng": "119.4580",
    "id": "1156686465"
  },
  {
    "city": "Zhenzhou",
    "city_ascii": "Zhenzhou",
    "admin_name": "Jiangsu",
    "lat": "32.2723",
    "lng": "119.1848",
    "id": "1156634387"
  },
  {
    "city": "Gaizhou",
    "city_ascii": "Gaizhou",
    "admin_name": "Liaoning",
    "lat": "40.4000",
    "lng": "122.3500",
    "id": "1156145272"
  },
  {
    "city": "Leling",
    "city_ascii": "Leling",
    "admin_name": "Shandong",
    "lat": "37.7300",
    "lng": "117.2320",
    "id": "1156044041"
  },
  {
    "city": "Wuhai",
    "city_ascii": "Wuhai",
    "admin_name": "Inner Mongolia",
    "lat": "39.6550",
    "lng": "106.7940",
    "id": "1156575615"
  },
  {
    "city": "Yanji",
    "city_ascii": "Yanji",
    "admin_name": "Jilin",
    "lat": "42.9000",
    "lng": "129.5000",
    "id": "1156405468"
  },
  {
    "city": "Wancheng",
    "city_ascii": "Wancheng",
    "admin_name": "Hainan",
    "lat": "18.8000",
    "lng": "110.4000",
    "id": "1156017483"
  },
  {
    "city": "Xinshi",
    "city_ascii": "Xinshi",
    "admin_name": "Hubei",
    "lat": "31.1333",
    "lng": "113.1167",
    "id": "1156422214"
  },
  {
    "city": "Luofeng",
    "city_ascii": "Luofeng",
    "admin_name": "Shandong",
    "lat": "37.3590",
    "lng": "120.3960",
    "id": "1156158643"
  },
  {
    "city": "Ghulja",
    "city_ascii": "Ghulja",
    "admin_name": "Xinjiang",
    "lat": "43.9000",
    "lng": "81.3500",
    "id": "1156064979"
  },
  {
    "city": "Fuding",
    "city_ascii": "Fuding",
    "admin_name": "Fujian",
    "lat": "27.2000",
    "lng": "120.2000",
    "id": "1156530120"
  },
  {
    "city": "Lingyuan",
    "city_ascii": "Lingyuan",
    "admin_name": "Liaoning",
    "lat": "41.2500",
    "lng": "119.4000",
    "id": "1156184681"
  },
  {
    "city": "Guixi",
    "city_ascii": "Guixi",
    "admin_name": "Jiangxi",
    "lat": "28.2925",
    "lng": "117.2454",
    "id": "1156259342"
  },
  {
    "city": "Aksu",
    "city_ascii": "Aksu",
    "admin_name": "Xinjiang",
    "lat": "41.1850",
    "lng": "80.2904",
    "id": "1156436913"
  },
  {
    "city": "Gaobeidian",
    "city_ascii": "Gaobeidian",
    "admin_name": "Hebei",
    "lat": "39.3270",
    "lng": "115.8740",
    "id": "1156487293"
  },
  {
    "city": "Luanzhou",
    "city_ascii": "Luanzhou",
    "admin_name": "Hebei",
    "lat": "39.7410",
    "lng": "118.7040",
    "id": "1156092104"
  },
  {
    "city": "Heshan",
    "city_ascii": "Heshan",
    "admin_name": "Guangdong",
    "lat": "22.7667",
    "lng": "112.9500",
    "id": "1156013872"
  },
  {
    "city": "Jiaji",
    "city_ascii": "Jiaji",
    "admin_name": "Hainan",
    "lat": "19.2431",
    "lng": "110.4642",
    "id": "1156658217"
  },
  {
    "city": "Meihekou",
    "city_ascii": "Meihekou",
    "admin_name": "Jilin",
    "lat": "42.5407",
    "lng": "125.7107",
    "id": "1156474288"
  },
  {
    "city": "Nenjiang",
    "city_ascii": "Nenjiang",
    "admin_name": "Heilongjiang",
    "lat": "49.1100",
    "lng": "125.1300",
    "id": "1156694308"
  },
  {
    "city": "Taozhou",
    "city_ascii": "Taozhou",
    "admin_name": "Anhui",
    "lat": "30.8956",
    "lng": "119.4110",
    "id": "1156438524"
  },
  {
    "city": "Anlu",
    "city_ascii": "Anlu",
    "admin_name": "Hubei",
    "lat": "31.2667",
    "lng": "113.6667",
    "id": "1156406202"
  },
  {
    "city": "Xiangyang",
    "city_ascii": "Xiangyang",
    "admin_name": "Shaanxi",
    "lat": "34.2995",
    "lng": "108.4905",
    "id": "1156215566"
  },
  {
    "city": "Jiangshan",
    "city_ascii": "Jiangshan",
    "admin_name": "Zhejiang",
    "lat": "28.7361",
    "lng": "118.6250",
    "id": "1156346497"
  },
  {
    "city": "Duyun",
    "city_ascii": "Duyun",
    "admin_name": "Guizhou",
    "lat": "26.2594",
    "lng": "107.5186",
    "id": "1156084618"
  },
  {
    "city": "Kumul",
    "city_ascii": "Kumul",
    "admin_name": "Xinjiang",
    "lat": "42.8193",
    "lng": "93.5151",
    "id": "1156131545"
  },
  {
    "city": "Xingcheng",
    "city_ascii": "Xingcheng",
    "admin_name": "Liaoning",
    "lat": "40.6167",
    "lng": "120.7333",
    "id": "1156705922"
  },
  {
    "city": "Yueqing",
    "city_ascii": "Yueqing",
    "admin_name": "Zhejiang",
    "lat": "28.1200",
    "lng": "120.9600",
    "id": "1156900058"
  },
  {
    "city": "Yucheng",
    "city_ascii": "Yucheng",
    "admin_name": "Shandong",
    "lat": "36.9340",
    "lng": "116.6380",
    "id": "1156530681"
  },
  {
    "city": "Karamay",
    "city_ascii": "Karamay",
    "admin_name": "Xinjiang",
    "lat": "45.5799",
    "lng": "84.8892",
    "id": "1156892128"
  },
  {
    "city": "Zhangshu",
    "city_ascii": "Zhangshu",
    "admin_name": "Jiangxi",
    "lat": "28.0546",
    "lng": "115.5462",
    "id": "1156996913"
  },
  {
    "city": "Mingguang",
    "city_ascii": "Mingguang",
    "admin_name": "Anhui",
    "lat": "32.7833",
    "lng": "117.9667",
    "id": "1156864248"
  },
  {
    "city": "Huanghua",
    "city_ascii": "Huanghua",
    "admin_name": "Hebei",
    "lat": "38.3720",
    "lng": "117.3300",
    "id": "1156131099"
  },
  {
    "city": "Encheng",
    "city_ascii": "Encheng",
    "admin_name": "Guangdong",
    "lat": "22.1833",
    "lng": "112.3000",
    "id": "1156653230"
  },
  {
    "city": "Lianran",
    "city_ascii": "Lianran",
    "admin_name": "Yunnan",
    "lat": "24.9190",
    "lng": "102.4780",
    "id": "1156332794"
  },
  {
    "city": "Hailun",
    "city_ascii": "Hailun",
    "admin_name": "Heilongjiang",
    "lat": "47.4667",
    "lng": "126.9667",
    "id": "1156804488"
  },
  {
    "city": "Chengjiao",
    "city_ascii": "Chengjiao",
    "admin_name": "Henan",
    "lat": "35.3984",
    "lng": "114.0649",
    "id": "1156571332"
  },
  {
    "city": "Xiulin",
    "city_ascii": "Xiulin",
    "admin_name": "Hubei",
    "lat": "29.7209",
    "lng": "112.4254",
    "id": "1156284109"
  },
  {
    "city": "Yicheng",
    "city_ascii": "Yicheng",
    "admin_name": "Hubei",
    "lat": "31.7210",
    "lng": "112.2570",
    "id": "1156742818"
  },
  {
    "city": "Fengcheng",
    "city_ascii": "Fengcheng",
    "admin_name": "Liaoning",
    "lat": "40.4500",
    "lng": "124.0667",
    "id": "1156519626"
  },
  {
    "city": "Xiaoyi",
    "city_ascii": "Xiaoyi",
    "admin_name": "Shanxi",
    "lat": "36.0833",
    "lng": "111.5167",
    "id": "1156910270"
  },
  {
    "city": "Jiangshandicun",
    "city_ascii": "Jiangshandicun",
    "admin_name": "Zhejiang",
    "lat": "28.7412",
    "lng": "118.6225",
    "id": "1156396630"
  },
  {
    "city": "Qingzhen",
    "city_ascii": "Qingzhen",
    "admin_name": "Guizhou",
    "lat": "26.5704",
    "lng": "106.4687",
    "id": "1156587033"
  },
  {
    "city": "Longjiang",
    "city_ascii": "Longjiang",
    "admin_name": "Zhejiang",
    "lat": "27.5819",
    "lng": "120.5489",
    "id": "1156034166"
  },
  {
    "city": "Rushan",
    "city_ascii": "Rushan",
    "admin_name": "Shandong",
    "lat": "36.8700",
    "lng": "121.5050",
    "id": "1156439528"
  },
  {
    "city": "Shangzhi",
    "city_ascii": "Shangzhi",
    "admin_name": "Heilongjiang",
    "lat": "45.2070",
    "lng": "127.9650",
    "id": "1156107332"
  },
  {
    "city": "Kuqa",
    "city_ascii": "Kuqa",
    "admin_name": "Xinjiang",
    "lat": "41.7156",
    "lng": "82.9322",
    "id": "1156894895"
  },
  {
    "city": "Kaiyuan",
    "city_ascii": "Kaiyuan",
    "admin_name": "Liaoning",
    "lat": "42.5460",
    "lng": "124.0380",
    "id": "1156081841"
  },
  {
    "city": "Gaoping",
    "city_ascii": "Gaoping",
    "admin_name": "Shanxi",
    "lat": "35.7980",
    "lng": "112.9240",
    "id": "1156238773"
  },
  {
    "city": "Tanbei",
    "city_ascii": "Tanbei",
    "admin_name": "Henan",
    "lat": "35.0880",
    "lng": "112.9510",
    "id": "1156690688"
  },
  {
    "city": "Baisha",
    "city_ascii": "Baisha",
    "admin_name": "Zhejiang",
    "lat": "29.4896",
    "lng": "119.3370",
    "id": "1156988315"
  },
  {
    "city": "Meicheng",
    "city_ascii": "Meicheng",
    "admin_name": "Anhui",
    "lat": "30.6310",
    "lng": "116.5810",
    "id": "1156136207"
  },
  {
    "city": "Beipiao",
    "city_ascii": "Beipiao",
    "admin_name": "Liaoning",
    "lat": "41.8010",
    "lng": "120.7710",
    "id": "1156378599"
  },
  {
    "city": "Jiannan",
    "city_ascii": "Jiannan",
    "admin_name": "Sichuan",
    "lat": "31.3333",
    "lng": "104.2000",
    "id": "1156155414"
  },
  {
    "city": "Jinchang",
    "city_ascii": "Jinchang",
    "admin_name": "Gansu",
    "lat": "38.5214",
    "lng": "102.1880",
    "id": "1156184861"
  },
  {
    "city": "Nehe",
    "city_ascii": "Nehe",
    "admin_name": "Heilongjiang",
    "lat": "48.4833",
    "lng": "124.8833",
    "id": "1156609562"
  },
  {
    "city": "Zhuangyuan",
    "city_ascii": "Zhuangyuan",
    "admin_name": "Shandong",
    "lat": "37.3056",
    "lng": "120.8290",
    "id": "1156263400"
  },
  {
    "city": "Jian’ou",
    "city_ascii": "Jian'ou",
    "admin_name": "Fujian",
    "lat": "27.0333",
    "lng": "118.3167",
    "id": "1156278784"
  },
  {
    "city": "Chang’an",
    "city_ascii": "Chang'an",
    "admin_name": "Hunan",
    "lat": "29.4768",
    "lng": "113.4504",
    "id": "1156139784"
  },
  {
    "city": "Shahe",
    "city_ascii": "Shahe",
    "admin_name": "Hebei",
    "lat": "36.8549",
    "lng": "114.5033",
    "id": "1156690538"
  },
  {
    "city": "Yan’an Beilu",
    "city_ascii": "Yan'an Beilu",
    "admin_name": "Xinjiang",
    "lat": "44.0144",
    "lng": "87.2674",
    "id": "1156048097"
  },
  {
    "city": "Beining",
    "city_ascii": "Beining",
    "admin_name": "Liaoning",
    "lat": "41.6000",
    "lng": "121.8000",
    "id": "1156424678"
  },
  {
    "city": "Laohekou",
    "city_ascii": "Laohekou",
    "admin_name": "Hubei",
    "lat": "32.3590",
    "lng": "111.6840",
    "id": "1156791804"
  },
  {
    "city": "Xicheng",
    "city_ascii": "Xicheng",
    "admin_name": "Yunnan",
    "lat": "23.3667",
    "lng": "103.1500",
    "id": "1156161838"
  },
  {
    "city": "Xingren",
    "city_ascii": "Xingren",
    "admin_name": "Guizhou",
    "lat": "25.4350",
    "lng": "105.1862",
    "id": "1156533633"
  },
  {
    "city": "Nagqu",
    "city_ascii": "Nagqu",
    "admin_name": "Tibet",
    "lat": "31.4760",
    "lng": "92.0510",
    "id": "1156260844"
  },
  {
    "city": "Fujin",
    "city_ascii": "Fujin",
    "admin_name": "Heilongjiang",
    "lat": "47.2500",
    "lng": "132.0333",
    "id": "1156404715"
  },
  {
    "city": "Yuanping",
    "city_ascii": "Yuanping",
    "admin_name": "Shanxi",
    "lat": "38.7310",
    "lng": "112.7110",
    "id": "1156294277"
  },
  {
    "city": "Linghai",
    "city_ascii": "Linghai",
    "admin_name": "Liaoning",
    "lat": "41.1667",
    "lng": "121.3500",
    "id": "1156081300"
  },
  {
    "city": "Danjiangkou",
    "city_ascii": "Danjiangkou",
    "admin_name": "Hubei",
    "lat": "32.5401",
    "lng": "111.5131",
    "id": "1156347994"
  },
  {
    "city": "Zhangjiakou Shi Xuanhua Qu",
    "city_ascii": "Zhangjiakou Shi Xuanhua Qu",
    "admin_name": "Hebei",
    "lat": "40.5944",
    "lng": "115.0243",
    "id": "1156240430"
  },
  {
    "city": "Zhijiang",
    "city_ascii": "Zhijiang",
    "admin_name": "Hubei",
    "lat": "30.4260",
    "lng": "111.7610",
    "id": "1156769646"
  },
  {
    "city": "Fenyang",
    "city_ascii": "Fenyang",
    "admin_name": "Shanxi",
    "lat": "37.2616",
    "lng": "111.7699",
    "id": "1156455704"
  },
  {
    "city": "Fangting",
    "city_ascii": "Fangting",
    "admin_name": "Sichuan",
    "lat": "31.1270",
    "lng": "104.1670",
    "id": "1156384608"
  },
  {
    "city": "Shulan",
    "city_ascii": "Shulan",
    "admin_name": "Jilin",
    "lat": "44.4059",
    "lng": "126.9655",
    "id": "1156989733"
  },
  {
    "city": "Wanyuan",
    "city_ascii": "Wanyuan",
    "admin_name": "Sichuan",
    "lat": "31.9833",
    "lng": "107.9667",
    "id": "1156571429"
  },
  {
    "city": "Jiexiu",
    "city_ascii": "Jiexiu",
    "admin_name": "Shanxi",
    "lat": "37.0270",
    "lng": "111.9170",
    "id": "1156275703"
  },
  {
    "city": "Pencheng",
    "city_ascii": "Pencheng",
    "admin_name": "Jiangxi",
    "lat": "29.6760",
    "lng": "115.6810",
    "id": "1156147187"
  },
  {
    "city": "Pingquan",
    "city_ascii": "Pingquan",
    "admin_name": "Hebei",
    "lat": "41.0184",
    "lng": "118.7020",
    "id": "1156442510"
  },
  {
    "city": "Dangyang",
    "city_ascii": "Dangyang",
    "admin_name": "Hubei",
    "lat": "30.8210",
    "lng": "111.7890",
    "id": "1156585505"
  },
  {
    "city": "Nangong",
    "city_ascii": "Nangong",
    "admin_name": "Hebei",
    "lat": "37.3590",
    "lng": "115.4090",
    "id": "1156426803"
  },
  {
    "city": "Yongji",
    "city_ascii": "Yongji",
    "admin_name": "Shanxi",
    "lat": "34.8670",
    "lng": "110.4480",
    "id": "1156001205"
  },
  {
    "city": "Zhugang",
    "city_ascii": "Zhugang",
    "admin_name": "Zhejiang",
    "lat": "28.1358",
    "lng": "121.2264",
    "id": "1156077330"
  },
  {
    "city": "Hejin",
    "city_ascii": "Hejin",
    "admin_name": "Shanxi",
    "lat": "35.5960",
    "lng": "110.7120",
    "id": "1156225234"
  },
  {
    "city": "Dunhua",
    "city_ascii": "Dunhua",
    "admin_name": "Jilin",
    "lat": "43.3667",
    "lng": "128.2333",
    "id": "1156058709"
  },
  {
    "city": "Huili Chengguanzhen",
    "city_ascii": "Huili Chengguanzhen",
    "admin_name": "Sichuan",
    "lat": "26.6333",
    "lng": "102.2500",
    "id": "1156149320"
  },
  {
    "city": "Lingxi",
    "city_ascii": "Lingxi",
    "admin_name": "Zhejiang",
    "lat": "27.5036",
    "lng": "120.3975",
    "id": "1156864251"
  },
  {
    "city": "Lecheng",
    "city_ascii": "Lecheng",
    "admin_name": "Guangdong",
    "lat": "25.1333",
    "lng": "113.3333",
    "id": "1156612198"
  },
  {
    "city": "Hancheng",
    "city_ascii": "Hancheng",
    "admin_name": "Shaanxi",
    "lat": "35.4667",
    "lng": "110.4333",
    "id": "1156265838"
  },
  {
    "city": "Zêtang",
    "city_ascii": "Zetang",
    "admin_name": "Tibet",
    "lat": "29.2380",
    "lng": "91.7710",
    "id": "1156561299"
  },
  {
    "city": "Lianzhou",
    "city_ascii": "Lianzhou",
    "admin_name": "Guangdong",
    "lat": "24.7810",
    "lng": "112.3770",
    "id": "1156020454"
  },
  {
    "city": "Helixi",
    "city_ascii": "Helixi",
    "admin_name": "Anhui",
    "lat": "30.6267",
    "lng": "118.9861",
    "id": "1156734041"
  },
  {
    "city": "Panshi",
    "city_ascii": "Panshi",
    "admin_name": "Jilin",
    "lat": "42.9500",
    "lng": "126.0667",
    "id": "1156659612"
  },
  {
    "city": "Jinshan",
    "city_ascii": "Jinshan",
    "admin_name": "Yunnan",
    "lat": "25.1475",
    "lng": "101.9764",
    "id": "1156913383"
  },
  {
    "city": "Anguo",
    "city_ascii": "Anguo",
    "admin_name": "Hebei",
    "lat": "38.4180",
    "lng": "115.3270",
    "id": "1156172518"
  },
  {
    "city": "Nanqiao",
    "city_ascii": "Nanqiao",
    "admin_name": "Shanghai",
    "lat": "30.9167",
    "lng": "121.4547",
    "id": "1156742230"
  },
  {
    "city": "Shuanghe",
    "city_ascii": "Shuanghe",
    "admin_name": "Sichuan",
    "lat": "30.3746",
    "lng": "106.7903",
    "id": "1156573894"
  },
  {
    "city": "Dengtacun",
    "city_ascii": "Dengtacun",
    "admin_name": "Liaoning",
    "lat": "41.4333",
    "lng": "123.3333",
    "id": "1156096868"
  },
  {
    "city": "Xunyang",
    "city_ascii": "Xunyang",
    "admin_name": "Shaanxi",
    "lat": "32.8341",
    "lng": "109.3653",
    "id": "1156656651"
  },
  {
    "city": "Anda",
    "city_ascii": "Anda",
    "admin_name": "Heilongjiang",
    "lat": "46.4240",
    "lng": "125.3520",
    "id": "1156142150"
  },
  {
    "city": "Linxia Chengguanzhen",
    "city_ascii": "Linxia Chengguanzhen",
    "admin_name": "Gansu",
    "lat": "35.6047",
    "lng": "103.2422",
    "id": "1156043522"
  },
  {
    "city": "Yidu",
    "city_ascii": "Yidu",
    "admin_name": "Hubei",
    "lat": "30.3780",
    "lng": "111.4500",
    "id": "1156230664"
  },
  {
    "city": "Yong’an",
    "city_ascii": "Yong'an",
    "admin_name": "Fujian",
    "lat": "25.9420",
    "lng": "117.3650",
    "id": "1156185328"
  },
  {
    "city": "Hongjiang",
    "city_ascii": "Hongjiang",
    "admin_name": "Hunan",
    "lat": "27.1910",
    "lng": "109.8190",
    "id": "1156039152"
  },
  {
    "city": "Huadian",
    "city_ascii": "Huadian",
    "admin_name": "Jilin",
    "lat": "42.9720",
    "lng": "126.7460",
    "id": "1156018839"
  },
  {
    "city": "Mishan",
    "city_ascii": "Mishan",
    "admin_name": "Heilongjiang",
    "lat": "45.5298",
    "lng": "131.8466",
    "id": "1156267144"
  },
  {
    "city": "Licheng",
    "city_ascii": "Licheng",
    "admin_name": "Guangxi",
    "lat": "24.5000",
    "lng": "110.4000",
    "id": "1156208986"
  },
  {
    "city": "Huichang",
    "city_ascii": "Huichang",
    "admin_name": "Henan",
    "lat": "34.9073",
    "lng": "112.7914",
    "id": "1156035769"
  },
  {
    "city": "Lengshuijiang",
    "city_ascii": "Lengshuijiang",
    "admin_name": "Hunan",
    "lat": "27.6860",
    "lng": "111.4360",
    "id": "1156002852"
  },
  {
    "city": "Minzhu",
    "city_ascii": "Minzhu",
    "admin_name": "Jilin",
    "lat": "43.7238",
    "lng": "127.3448",
    "id": "1156295044"
  },
  {
    "city": "Ulanhot",
    "city_ascii": "Ulanhot",
    "admin_name": "Inner Mongolia",
    "lat": "46.0722",
    "lng": "122.0933",
    "id": "1156182060"
  },
  {
    "city": "Yunzhong",
    "city_ascii": "Yunzhong",
    "admin_name": "Shanxi",
    "lat": "39.8279",
    "lng": "113.1000",
    "id": "1156589240"
  },
  {
    "city": "Kaiyuan",
    "city_ascii": "Kaiyuan",
    "admin_name": "Yunnan",
    "lat": "23.7111",
    "lng": "103.2461",
    "id": "1156888008"
  },
  {
    "city": "Tangdong",
    "city_ascii": "Tangdong",
    "admin_name": "Hunan",
    "lat": "25.9730",
    "lng": "113.2310",
    "id": "1156682620"
  },
  {
    "city": "Hotan",
    "city_ascii": "Hotan",
    "admin_name": "Xinjiang",
    "lat": "37.1167",
    "lng": "79.9167",
    "id": "1156111844"
  },
  {
    "city": "Ning’an",
    "city_ascii": "Ning'an",
    "admin_name": "Heilongjiang",
    "lat": "44.3410",
    "lng": "129.4830",
    "id": "1156629205"
  },
  {
    "city": "Zalantun",
    "city_ascii": "Zalantun",
    "admin_name": "Inner Mongolia",
    "lat": "48.0270",
    "lng": "122.7080",
    "id": "1156280237"
  },
  {
    "city": "Zhengjiatun",
    "city_ascii": "Zhengjiatun",
    "admin_name": "Jilin",
    "lat": "43.5183",
    "lng": "123.5027",
    "id": "1156759747"
  },
  {
    "city": "Xiaoli",
    "city_ascii": "Xiaoli",
    "admin_name": "Guangdong",
    "lat": "22.6721",
    "lng": "113.2509",
    "id": "1156561711"
  },
  {
    "city": "Yingzhong",
    "city_ascii": "Yingzhong",
    "admin_name": "Jiangsu",
    "lat": "32.2370",
    "lng": "119.8150",
    "id": "1156969537"
  },
  {
    "city": "Jiayuguan",
    "city_ascii": "Jiayuguan",
    "admin_name": "Gansu",
    "lat": "39.7732",
    "lng": "98.2882",
    "id": "1156177210"
  },
  {
    "city": "Datang",
    "city_ascii": "Datang",
    "admin_name": "Guangdong",
    "lat": "22.9406",
    "lng": "113.9436",
    "id": "1156511075"
  },
  {
    "city": "Longquan",
    "city_ascii": "Longquan",
    "admin_name": "Jiangxi",
    "lat": "25.9106",
    "lng": "114.7860",
    "id": "1156262367"
  },
  {
    "city": "Beian",
    "city_ascii": "Beian",
    "admin_name": "Heilongjiang",
    "lat": "48.2500",
    "lng": "126.5167",
    "id": "1156084414"
  },
  {
    "city": "Guangming",
    "city_ascii": "Guangming",
    "admin_name": "Jilin",
    "lat": "45.3333",
    "lng": "122.7833",
    "id": "1156955625"
  },
  {
    "city": "Yonghetun",
    "city_ascii": "Yonghetun",
    "admin_name": "Beijing",
    "lat": "39.9131",
    "lng": "116.6458",
    "id": "1156137902"
  },
  {
    "city": "Qianzhou",
    "city_ascii": "Qianzhou",
    "admin_name": "Hunan",
    "lat": "28.2760",
    "lng": "109.7120",
    "id": "1156103756"
  },
  {
    "city": "Binxian",
    "city_ascii": "Binxian",
    "admin_name": "Shaanxi",
    "lat": "35.0542",
    "lng": "108.0814",
    "id": "1156167534"
  },
  {
    "city": "Yakou",
    "city_ascii": "Yakou",
    "admin_name": "Henan",
    "lat": "33.2950",
    "lng": "113.5269",
    "id": "1156326854"
  },
  {
    "city": "Dexing",
    "city_ascii": "Dexing",
    "admin_name": "Jiangxi",
    "lat": "28.9306",
    "lng": "117.5947",
    "id": "1156895348"
  },
  {
    "city": "Hailin",
    "city_ascii": "Hailin",
    "admin_name": "Heilongjiang",
    "lat": "44.5940",
    "lng": "129.3800",
    "id": "1156267191"
  },
  {
    "city": "Hong’an",
    "city_ascii": "Hong'an",
    "admin_name": "Heilongjiang",
    "lat": "47.2100",
    "lng": "123.6100",
    "id": "1156999688"
  },
  {
    "city": "Fuquan",
    "city_ascii": "Fuquan",
    "admin_name": "Guizhou",
    "lat": "26.6863",
    "lng": "107.5204",
    "id": "1156672189"
  },
  {
    "city": "Jining",
    "city_ascii": "Jining",
    "admin_name": "Inner Mongolia",
    "lat": "41.0300",
    "lng": "113.0800",
    "id": "1156261326"
  },
  {
    "city": "Xingsha",
    "city_ascii": "Xingsha",
    "admin_name": "Hunan",
    "lat": "28.2573",
    "lng": "113.1234",
    "id": "1156111934"
  },
  {
    "city": "Shaowu",
    "city_ascii": "Shaowu",
    "admin_name": "Fujian",
    "lat": "27.3403",
    "lng": "117.4925",
    "id": "1156978131"
  },
  {
    "city": "Huozhou",
    "city_ascii": "Huozhou",
    "admin_name": "Shanxi",
    "lat": "36.5690",
    "lng": "111.7551",
    "id": "1156917368"
  },
  {
    "city": "Huilong",
    "city_ascii": "Huilong",
    "admin_name": "Sichuan",
    "lat": "30.3866",
    "lng": "106.7756",
    "id": "1156062251"
  },
  {
    "city": "Da’an",
    "city_ascii": "Da'an",
    "admin_name": "Jilin",
    "lat": "45.5000",
    "lng": "124.2833",
    "id": "1156577983"
  },
  {
    "city": "Bijiao",
    "city_ascii": "Bijiao",
    "admin_name": "Guangdong",
    "lat": "22.9253",
    "lng": "113.2067",
    "id": "1156211724"
  },
  {
    "city": "Hulin",
    "city_ascii": "Hulin",
    "admin_name": "Heilongjiang",
    "lat": "45.7667",
    "lng": "132.9333",
    "id": "1156161638"
  },
  {
    "city": "Yakeshi",
    "city_ascii": "Yakeshi",
    "admin_name": "Inner Mongolia",
    "lat": "49.2860",
    "lng": "120.7120",
    "id": "1156666223"
  },
  {
    "city": "Shijing",
    "city_ascii": "Shijing",
    "admin_name": "Guangdong",
    "lat": "23.0930",
    "lng": "113.7965",
    "id": "1156078561"
  },
  {
    "city": "Wudalianchi",
    "city_ascii": "Wudalianchi",
    "admin_name": "Heilongjiang",
    "lat": "48.7500",
    "lng": "126.1667",
    "id": "1156059331"
  },
  {
    "city": "Zhangping",
    "city_ascii": "Zhangping",
    "admin_name": "Fujian",
    "lat": "25.2902",
    "lng": "117.4200",
    "id": "1156352113"
  },
  {
    "city": "Atushi",
    "city_ascii": "Atushi",
    "admin_name": "Xinjiang",
    "lat": "39.7162",
    "lng": "76.1684",
    "id": "1156047949"
  },
  {
    "city": "Wuyishan",
    "city_ascii": "Wuyishan",
    "admin_name": "Fujian",
    "lat": "27.7564",
    "lng": "118.0353",
    "id": "1156519625"
  },
  {
    "city": "Shenmu",
    "city_ascii": "Shenmu",
    "admin_name": "Shaanxi",
    "lat": "38.8244",
    "lng": "110.4831",
    "id": "1156106796"
  },
  {
    "city": "Chishui",
    "city_ascii": "Chishui",
    "admin_name": "Guizhou",
    "lat": "28.5904",
    "lng": "105.6975",
    "id": "1156325764"
  },
  {
    "city": "Bole",
    "city_ascii": "Bole",
    "admin_name": "Xinjiang",
    "lat": "44.8539",
    "lng": "82.0514",
    "id": "1156784761"
  },
  {
    "city": "Longquan",
    "city_ascii": "Longquan",
    "admin_name": "Zhejiang",
    "lat": "28.0667",
    "lng": "119.1333",
    "id": "1156962780"
  },
  {
    "city": "Lin’an",
    "city_ascii": "Lin'an",
    "admin_name": "Yunnan",
    "lat": "23.6025",
    "lng": "102.8309",
    "id": "1156181740"
  },
  {
    "city": "Huangjingkeng",
    "city_ascii": "Huangjingkeng",
    "admin_name": "Guangdong",
    "lat": "22.9173",
    "lng": "113.9958",
    "id": "1156213683"
  },
  {
    "city": "Tieli",
    "city_ascii": "Tieli",
    "admin_name": "Heilongjiang",
    "lat": "46.9500",
    "lng": "128.0500",
    "id": "1156769379"
  },
  {
    "city": "Dianbu",
    "city_ascii": "Dianbu",
    "admin_name": "Anhui",
    "lat": "31.8883",
    "lng": "117.4608",
    "id": "1156993300"
  },
  {
    "city": "Hunchun",
    "city_ascii": "Hunchun",
    "admin_name": "Jilin",
    "lat": "42.8630",
    "lng": "130.3660",
    "id": "1156644593"
  },
  {
    "city": "Nong’an",
    "city_ascii": "Nong'an",
    "admin_name": "Jilin",
    "lat": "44.4347",
    "lng": "125.1750",
    "id": "1156278589"
  },
  {
    "city": "Longjiang",
    "city_ascii": "Longjiang",
    "admin_name": "Guangdong",
    "lat": "22.8853",
    "lng": "113.0758",
    "id": "1156562500"
  },
  {
    "city": "Xiqiao",
    "city_ascii": "Xiqiao",
    "admin_name": "Guangdong",
    "lat": "22.9409",
    "lng": "112.9819",
    "id": "1156558761"
  },
  {
    "city": "Wayaobu",
    "city_ascii": "Wayaobu",
    "admin_name": "Shaanxi",
    "lat": "37.1427",
    "lng": "109.6752",
    "id": "1156408502"
  },
  {
    "city": "Dongxing",
    "city_ascii": "Dongxing",
    "admin_name": "Guangxi",
    "lat": "21.5478",
    "lng": "107.9717",
    "id": "1156419338"
  },
  {
    "city": "Golmud",
    "city_ascii": "Golmud",
    "admin_name": "Qinghai",
    "lat": "36.4072",
    "lng": "94.9283",
    "id": "1156083724"
  },
  {
    "city": "Jinshi",
    "city_ascii": "Jinshi",
    "admin_name": "Hunan",
    "lat": "29.5000",
    "lng": "111.9080",
    "id": "1156062960"
  },
  {
    "city": "Xujing",
    "city_ascii": "Xujing",
    "admin_name": "Shanghai",
    "lat": "31.1731",
    "lng": "121.2723",
    "id": "1156273514"
  },
  {
    "city": "Xigujing",
    "city_ascii": "Xigujing",
    "admin_name": "Shanghai",
    "lat": "31.2988",
    "lng": "121.1742",
    "id": "1156206216"
  },
  {
    "city": "Gujiao",
    "city_ascii": "Gujiao",
    "admin_name": "Shanxi",
    "lat": "37.9070",
    "lng": "112.1760",
    "id": "1156571525"
  },
  {
    "city": "Taisheng",
    "city_ascii": "Taisheng",
    "admin_name": "Guangdong",
    "lat": "23.2939",
    "lng": "113.3531",
    "id": "1156077513"
  },
  {
    "city": "Diaobingshancun",
    "city_ascii": "Diaobingshancun",
    "admin_name": "Liaoning",
    "lat": "42.4667",
    "lng": "123.5667",
    "id": "1156893347"
  },
  {
    "city": "Jiutai",
    "city_ascii": "Jiutai",
    "admin_name": "Jilin",
    "lat": "44.1447",
    "lng": "125.8443",
    "id": "1156061722"
  },
  {
    "city": "Huayin",
    "city_ascii": "Huayin",
    "admin_name": "Shaanxi",
    "lat": "34.5833",
    "lng": "110.1000",
    "id": "1156156462"
  },
  {
    "city": "Luzhang",
    "city_ascii": "Luzhang",
    "admin_name": "Yunnan",
    "lat": "25.8226",
    "lng": "98.8577",
    "id": "1156305822"
  },
  {
    "city": "Bamiantong",
    "city_ascii": "Bamiantong",
    "admin_name": "Heilongjiang",
    "lat": "44.9167",
    "lng": "130.5167",
    "id": "1156971194"
  },
  {
    "city": "Dongning",
    "city_ascii": "Dongning",
    "admin_name": "Heilongjiang",
    "lat": "44.1167",
    "lng": "130.8167",
    "id": "1156856366"
  },
  {
    "city": "Beichengqu",
    "city_ascii": "Beichengqu",
    "admin_name": "Inner Mongolia",
    "lat": "40.4370",
    "lng": "113.1100",
    "id": "1156401666"
  },
  {
    "city": "Taihe",
    "city_ascii": "Taihe",
    "admin_name": "Guangdong",
    "lat": "23.7413",
    "lng": "113.0076",
    "id": "1156434343"
  },
  {
    "city": "Dunhuang",
    "city_ascii": "Dunhuang",
    "admin_name": "Gansu",
    "lat": "40.1411",
    "lng": "94.6639",
    "id": "1156068377"
  },