[
  {
    "city": "Banjul",
    "city_ascii": "Banjul",
    "admin_name": "Banjul",
    "lat": "13.4581",
    "lng": "-16.5786",
    "id": "1270723713"
  },
  {
    "city": "Serekunda",
    "city_ascii": "Serekunda",
    "admin_name": "Kanifing",
    "lat": "13.4450",
    "lng": "-16.6750",
    "id": "1270640044"
  },
  {
    "city": "Kanifing",
    "city_ascii": "Kanifing",
    "admin_name": "Kanifing",
    "lat": "13.4475",
    "lng": "-16.6725",
    "id": "1270000000"
  },
  {
    "city": "Brikama",
    "city_ascii": "Brikama",
    "admin_name": "West Coast",
    "lat": "13.2667",
    "lng": "-16.6500",
    "id": "1270953861"
  },
  {
    "city": "Bakau",
    "city_ascii": "Bakau",
    "admin_name": "Kanifing",
    "lat": "13.4833",
    "lng": "-16.6833",
    "id": "1270091879"
  },
  {
    "city": "Sukuta",
    "city_ascii": "Sukuta",
    "admin_name": "West Coast",
    "lat": "13.4167",
    "lng": "-16.7000",
    "id": "1270665671"
  },
  {
    "city": "Sareh Mowndeh",
    "city_ascii": "Sareh Mowndeh",
    "admin_name": "West Coast",
    "lat": "13.4036",
    "lng": "-16.6833",
    "id": "1270781020"
  },
  {
    "city": "Farafenni",
    "city_ascii": "Farafenni",
    "admin_name": "North Bank",
    "lat": "13.5667",
    "lng": "-15.6000",
    "id": "1270512503"
  },
  {
    "city": "Mansa Konko",
    "city_ascii": "Mansa Konko",
    "admin_name": "Lower River",
    "lat": "13.4667",
    "lng": "-15.5500",
    "id": "1270071162"
  },
  {
    "city": "Basse Santa Su",
    "city_ascii": "Basse Santa Su",
    "admin_name": "Upper River",
    "lat": "13.3167",
    "lng": "-14.2167",
    "id": "1270820759"
  },
  {
    "city": "Gunjur",
    "city_ascii": "Gunjur",
    "admin_name": "West Coast",
    "lat": "13.1833",
    "lng": "-16.7667",
    "id": "1270361274"
  },
  {
    "city": "Essau",
    "city_ascii": "Essau",
    "admin_name": "North Bank",
    "lat": "13.4833",
    "lng": "-16.5333",
    "id": "1270359208"
  },
  {
    "city": "Busumbala",
    "city_ascii": "Busumbala",
    "admin_name": "West Coast",
    "lat": "13.3333",
    "lng": "-16.6667",
    "id": "1270720788"
  },
  {
    "city": "Brikama Ba",
    "city_ascii": "Brikama Ba",
    "admin_name": "Central River",
    "lat": "13.5333",
    "lng": "-14.9333",
    "id": "1270974319"
  },
  {
    "city": "Gambissara",
    "city_ascii": "Gambissara",
    "admin_name": "Upper River",
    "lat": "13.2333",
    "lng": "-14.3167",
    "id": "1270580590"
  },
  {
    "city": "Diabugu",
    "city_ascii": "Diabugu",
    "admin_name": "Upper River",
    "lat": "13.3833",
    "lng": "-14.4000",
    "id": "1270353608"
  },
  {
    "city": "Bansang",
    "city_ascii": "Bansang",
    "admin_name": "Central River",
    "lat": "13.4333",
    "lng": "-14.6500",
    "id": "1270543142"
  },
  {
    "city": "Janjanbureh",
    "city_ascii": "Janjanbureh",
    "admin_name": "Central River",
    "lat": "13.5341",
    "lng": "-14.7662",
    "id": "1270430701"
  },
  {
    "city": "Kerewan",
    "city_ascii": "Kerewan",
    "admin_name": "North Bank",
    "lat": "13.5000",
    "lng": "-16.0833",
    "id": "1270976260"
  }
]