[
  {
    "city": "Mexico City",
    "city_ascii": "Mexico City",
    "admin_name": "Ciudad de México",
    "lat": "19.4333",
    "lng": "-99.1333",
    "id": "1484247881"
  },
  {
    "city": "Guadalajara",
    "city_ascii": "Guadalajara",
    "admin_name": "Jalisco",
    "lat": "20.6767",
    "lng": "-103.3475",
    "id": "1484950208"
  },
  {
    "city": "Monterrey",
    "city_ascii": "Monterrey",
    "admin_name": "Nuevo León",
    "lat": "25.6844",
    "lng": "-100.3181",
    "id": "1484559591"
  },
  {
    "city": "Toluca",
    "city_ascii": "Toluca",
    "admin_name": "México",
    "lat": "19.2925",
    "lng": "-99.6569",
    "id": "1484124846"
  },
  {
    "city": "Tijuana",
    "city_ascii": "Tijuana",
    "admin_name": "Baja California",
    "lat": "32.5250",
    "lng": "-117.0333",
    "id": "1484708778"
  },
  {
    "city": "Ecatepec",
    "city_ascii": "Ecatepec",
    "admin_name": "México",
    "lat": "19.6097",
    "lng": "-99.0600",
    "id": "1484003694"
  },
  {
    "city": "León de los Aldama",
    "city_ascii": "Leon de los Aldama",
    "admin_name": "Guanajuato",
    "lat": "21.1167",
    "lng": "-101.6833",
    "id": "1484811199"
  },
  {
    "city": "Puebla",
    "city_ascii": "Puebla",
    "admin_name": "Puebla",
    "lat": "19.0333",
    "lng": "-98.1833",
    "id": "1484416394"
  },
  {
    "city": "Zapopan",
    "city_ascii": "Zapopan",
    "admin_name": "Jalisco",
    "lat": "20.7167",
    "lng": "-103.4000",
    "id": "1484198680"
  },
  {
    "city": "Juárez",
    "city_ascii": "Juarez",
    "admin_name": "Chihuahua",
    "lat": "31.7450",
    "lng": "-106.4850",
    "id": "1484840083"
  },
  {
    "city": "Mexicali",
    "city_ascii": "Mexicali",
    "admin_name": "Baja California",
    "lat": "32.6633",
    "lng": "-115.4678",
    "id": "1484788702"
  },
  {
    "city": "Nezahualcóyotl",
    "city_ascii": "Nezahualcoyotl",
    "admin_name": "México",
    "lat": "19.4081",
    "lng": "-99.0186",
    "id": "1484074285"
  },
  {
    "city": "Ciudad Nezahualcóyotl",
    "city_ascii": "Ciudad Nezahualcoyotl",
    "admin_name": "México",
    "lat": "19.4006",
    "lng": "-99.0148",
    "id": "1484016661"
  },
  {
    "city": "Morelia",
    "city_ascii": "Morelia",
    "admin_name": "Michoacán",
    "lat": "19.7683",
    "lng": "-101.1894",
    "id": "1484669072"
  },
  {
    "city": "Aguascalientes",
    "city_ascii": "Aguascalientes",
    "admin_name": "Aguascalientes",
    "lat": "21.8760",
    "lng": "-102.2960",
    "id": "1484666646"
  },
  {
    "city": "Chihuahua",
    "city_ascii": "Chihuahua",
    "admin_name": "Chihuahua",
    "lat": "28.6369",
    "lng": "-106.0769",
    "id": "1484335603"
  },
  {
    "city": "Naucalpan de Juárez",
    "city_ascii": "Naucalpan de Juarez",
    "admin_name": "México",
    "lat": "19.4753",
    "lng": "-99.2378",
    "id": "1484850125"
  },
  {
    "city": "Mérida",
    "city_ascii": "Merida",
    "admin_name": "Yucatán",
    "lat": "20.9667",
    "lng": "-89.6167",
    "id": "1484396779"
  },
  {
    "city": "Cancún",
    "city_ascii": "Cancun",
    "admin_name": "Quintana Roo",
    "lat": "21.1606",
    "lng": "-86.8475",
    "id": "1484010310"
  },
  {
    "city": "Saltillo",
    "city_ascii": "Saltillo",
    "admin_name": "Coahuila",
    "lat": "25.4231",
    "lng": "-100.9919",
    "id": "1484107245"
  },
  {
    "city": "Hermosillo",
    "city_ascii": "Hermosillo",
    "admin_name": "Sonora",
    "lat": "29.0989",
    "lng": "-110.9542",
    "id": "1484015319"
  },
  {
    "city": "Culiacán",
    "city_ascii": "Culiacan",
    "admin_name": "Sinaloa",
    "lat": "24.8069",
    "lng": "-107.3939",
    "id": "1484516810"
  },
  {
    "city": "Querétaro",
    "city_ascii": "Queretaro",
    "admin_name": "Querétaro",
    "lat": "20.5875",
    "lng": "-100.3928",
    "id": "1484604775"
  },
  {
    "city": "San Luis Potosí",
    "city_ascii": "San Luis Potosi",
    "admin_name": "San Luis Potosí",
    "lat": "22.1511",
    "lng": "-100.9761",
    "id": "1484583620"
  },
  {
    "city": "Guadalupe",
    "city_ascii": "Guadalupe",
    "admin_name": "Nuevo León",
    "lat": "25.6775",
    "lng": "-100.2597",
    "id": "1484002410"
  },
  {
    "city": "Acapulco de Juárez",
    "city_ascii": "Acapulco de Juarez",
    "admin_name": "Guerrero",
    "lat": "16.8636",
    "lng": "-99.8825",
    "id": "1484463183"
  },
  {
    "city": "Tlaquepaque",
    "city_ascii": "Tlaquepaque",
    "admin_name": "Jalisco",
    "lat": "20.6167",
    "lng": "-103.3167",
    "id": "1484087945"
  },
  {
    "city": "Durango",
    "city_ascii": "Durango",
    "admin_name": "Durango",
    "lat": "24.0250",
    "lng": "-104.6675",
    "id": "1484854616"
  },
  {
    "city": "Tlalnepantla",
    "city_ascii": "Tlalnepantla",
    "admin_name": "México",
    "lat": "19.5367",
    "lng": "-99.1947",
    "id": "1484861603"
  },
  {
    "city": "Chimalhuacán",
    "city_ascii": "Chimalhuacan",
    "admin_name": "México",
    "lat": "19.4131",
    "lng": "-98.9839",
    "id": "1484504936"
  },
  {
    "city": "Irapuato",
    "city_ascii": "Irapuato",
    "admin_name": "Guanajuato",
    "lat": "20.6667",
    "lng": "-101.3500",
    "id": "1484625454"
  },
  {
    "city": "Reynosa",
    "city_ascii": "Reynosa",
    "admin_name": "Tamaulipas",
    "lat": "26.0922",
    "lng": "-98.2778",
    "id": "1484737671"
  },
  {
    "city": "Tuxtla",
    "city_ascii": "Tuxtla",
    "admin_name": "Chiapas",
    "lat": "16.7528",
    "lng": "-93.1167",
    "id": "1484832519"
  },
  {
    "city": "Tonalá",
    "city_ascii": "Tonala",
    "admin_name": "Jalisco",
    "lat": "20.6167",
    "lng": "-103.2333",
    "id": "1484750897"
  },
  {
    "city": "Ensenada",
    "city_ascii": "Ensenada",
    "admin_name": "Baja California",
    "lat": "31.8578",
    "lng": "-116.6058",
    "id": "1484714297"
  },
  {
    "city": "Ixtapaluca",
    "city_ascii": "Ixtapaluca",
    "admin_name": "México",
    "lat": "19.3186",
    "lng": "-98.8822",
    "id": "1484452937"
  },
  {
    "city": "Heroica Matamoros",
    "city_ascii": "Heroica Matamoros",
    "admin_name": "Tamaulipas",
    "lat": "25.8797",
    "lng": "-97.5042",
    "id": "1484614906"
  },
  {
    "city": "Ciudad Apodaca",
    "city_ascii": "Ciudad Apodaca",
    "admin_name": "Nuevo León",
    "lat": "25.7817",
    "lng": "-100.1886",
    "id": "1484855080"
  },
  {
    "city": "Tultitlán de Mariano Escobedo",
    "city_ascii": "Tultitlan de Mariano Escobedo",
    "admin_name": "México",
    "lat": "19.6450",
    "lng": "-99.1694",
    "id": "1484562374"
  },
  {
    "city": "Mazatlán",
    "city_ascii": "Mazatlan",
    "admin_name": "Sinaloa",
    "lat": "23.2167",
    "lng": "-106.4167",
    "id": "1484841466"
  },
  {
    "city": "Ciudad López Mateos",
    "city_ascii": "Ciudad Lopez Mateos",
    "admin_name": "México",
    "lat": "19.5500",
    "lng": "-99.2833",
    "id": "1484363879"
  },
  {
    "city": "Ciudad General Escobedo",
    "city_ascii": "Ciudad General Escobedo",
    "admin_name": "Nuevo León",
    "lat": "25.7933",
    "lng": "-100.1583",
    "id": "1484345554"
  },
  {
    "city": "San Nicolás de los Garza",
    "city_ascii": "San Nicolas de los Garza",
    "admin_name": "Nuevo León",
    "lat": "25.7500",
    "lng": "-100.2833",
    "id": "1484264138"
  },
  {
    "city": "Veracruz",
    "city_ascii": "Veracruz",
    "admin_name": "Veracruz",
    "lat": "19.1903",
    "lng": "-96.1533",
    "id": "1484992153"
  },
  {
    "city": "Tepic",
    "city_ascii": "Tepic",
    "admin_name": "Nayarit",
    "lat": "21.5083",
    "lng": "-104.8931",
    "id": "1484433877"
  },
  {
    "city": "Xalapa",
    "city_ascii": "Xalapa",
    "admin_name": "Veracruz",
    "lat": "19.5400",
    "lng": "-96.9275",
    "id": "1484334948"
  },
  {
    "city": "Nuevo Laredo",
    "city_ascii": "Nuevo Laredo",
    "admin_name": "Tamaulipas",
    "lat": "27.4861",
    "lng": "-99.5069",
    "id": "1484597234"
  },
  {
    "city": "Celaya",
    "city_ascii": "Celaya",
    "admin_name": "Guanajuato",
    "lat": "20.5222",
    "lng": "-100.8122",
    "id": "1484979555"
  },
  {
    "city": "Nicolás Romero",
    "city_ascii": "Nicolas Romero",
    "admin_name": "México",
    "lat": "19.5833",
    "lng": "-99.3667",
    "id": "1484589606"
  },
  {
    "city": "Tecámac",
    "city_ascii": "Tecamac",
    "admin_name": "México",
    "lat": "19.7131",
    "lng": "-98.9683",
    "id": "1484363321"
  },
  {
    "city": "Minatitlán",
    "city_ascii": "Minatitlan",
    "admin_name": "Veracruz",
    "lat": "17.9833",
    "lng": "-94.5500",
    "id": "1484735713"
  },
  {
    "city": "Villahermosa",
    "city_ascii": "Villahermosa",
    "admin_name": "Tabasco",
    "lat": "17.9892",
    "lng": "-92.9281",
    "id": "1484460894"
  },
  {
    "city": "Cuernavaca",
    "city_ascii": "Cuernavaca",
    "admin_name": "Morelos",
    "lat": "18.9186",
    "lng": "-99.2342",
    "id": "1484926471"
  },
  {
    "city": "Uruapan",
    "city_ascii": "Uruapan",
    "admin_name": "Michoacán",
    "lat": "19.4208",
    "lng": "-102.0628",
    "id": "1484051478"
  },
  {
    "city": "Soledad de Graciano Sánchez",
    "city_ascii": "Soledad de Graciano Sanchez",
    "admin_name": "San Luis Potosí",
    "lat": "22.1833",
    "lng": "-100.9333",
    "id": "1484610487"
  },
  {
    "city": "Ciudad Obregón",
    "city_ascii": "Ciudad Obregon",
    "admin_name": "Sonora",
    "lat": "27.4939",
    "lng": "-109.9389",
    "id": "1484887986"
  },
  {
    "city": "Gómez Palacio",
    "city_ascii": "Gomez Palacio",
    "admin_name": "Durango",
    "lat": "25.5611",
    "lng": "-103.4983",
    "id": "1484092318"
  },
  {
    "city": "Salamanca",
    "city_ascii": "Salamanca",
    "admin_name": "Guanajuato",
    "lat": "20.5703",
    "lng": "-101.1972",
    "id": "1484741627"
  },
  {
    "city": "Guasavito",
    "city_ascii": "Guasavito",
    "admin_name": "Sinaloa",
    "lat": "25.5744",
    "lng": "-108.4706",
    "id": "1484662260"
  },
  {
    "city": "Tehuacán",
    "city_ascii": "Tehuacan",
    "admin_name": "Puebla",
    "lat": "18.4617",
    "lng": "-97.3928",
    "id": "1484817336"
  },
  {
    "city": "Coatzacoalcos",
    "city_ascii": "Coatzacoalcos",
    "admin_name": "Veracruz",
    "lat": "18.1414",
    "lng": "-94.4344",
    "id": "1484016854"
  },
  {
    "city": "Chalco",
    "city_ascii": "Chalco",
    "admin_name": "México",
    "lat": "19.2647",
    "lng": "-98.8975",
    "id": "1484834149"
  },
  {
    "city": "Ciudad Benito Juárez",
    "city_ascii": "Ciudad Benito Juarez",
    "admin_name": "Nuevo León",
    "lat": "25.6500",
    "lng": "-100.0833",
    "id": "1484140727"
  },
  {
    "city": "Ciudad Santa Catarina",
    "city_ascii": "Ciudad Santa Catarina",
    "admin_name": "Nuevo León",
    "lat": "25.6833",
    "lng": "-100.4500",
    "id": "1484858068"
  },
  {
    "city": "Ciudad Victoria",
    "city_ascii": "Ciudad Victoria",
    "admin_name": "Tamaulipas",
    "lat": "23.7389",
    "lng": "-99.1431",
    "id": "1484616519"
  },
  {
    "city": "Playa del Carmen",
    "city_ascii": "Playa del Carmen",
    "admin_name": "Quintana Roo",
    "lat": "20.6281",
    "lng": "-87.0755",
    "id": "1484559458"
  },
  {
    "city": "La Peña",
    "city_ascii": "La Pena",
    "admin_name": "México",
    "lat": "19.3606",
    "lng": "-98.9417",
    "id": "1484889859"
  },
  {
    "city": "San Juan del Río",
    "city_ascii": "San Juan del Rio",
    "admin_name": "Querétaro",
    "lat": "20.3833",
    "lng": "-99.9833",
    "id": "1484890205"
  },
  {
    "city": "Oaxaca",
    "city_ascii": "Oaxaca",
    "admin_name": "Oaxaca",
    "lat": "17.0606",
    "lng": "-96.7253",
    "id": "1484301467"
  },
  {
    "city": "Los Mochis",
    "city_ascii": "Los Mochis",
    "admin_name": "Sinaloa",
    "lat": "25.7835",
    "lng": "-108.9937",
    "id": "1484443585"
  },
  {
    "city": "Pachuca",
    "city_ascii": "Pachuca",
    "admin_name": "Hidalgo",
    "lat": "20.1000",
    "lng": "-98.7500",
    "id": "1484575026"
  },
  {
    "city": "Tampico",
    "city_ascii": "Tampico",
    "admin_name": "Tamaulipas",
    "lat": "22.2553",
    "lng": "-97.8686",
    "id": "1484060031"
  },
  {
    "city": "Coacalco",
    "city_ascii": "Coacalco",
    "admin_name": "México",
    "lat": "19.6333",
    "lng": "-99.0931",
    "id": "1484929782"
  },
  {
    "city": "Huixquilucan",
    "city_ascii": "Huixquilucan",
    "admin_name": "México",
    "lat": "19.3611",
    "lng": "-99.3508",
    "id": "1484187110"
  },
  {
    "city": "Nogales",
    "city_ascii": "Nogales",
    "admin_name": "Sonora",
    "lat": "31.3000",
    "lng": "-110.9333",
    "id": "1484793569"
  },
  {
    "city": "Heroica Nogales",
    "city_ascii": "Heroica Nogales",
    "admin_name": "Sonora",
    "lat": "31.3186",
    "lng": "-110.9458",
    "id": "1484364591"
  },
  {
    "city": "La Paz",
    "city_ascii": "La Paz",
    "admin_name": "Baja California Sur",
    "lat": "24.1422",
    "lng": "-110.3108",
    "id": "1484005187"
  },
  {
    "city": "Campeche",
    "city_ascii": "Campeche",
    "admin_name": "Campeche",
    "lat": "19.8500",
    "lng": "-90.5306",
    "id": "1484431512"
  },
  {
    "city": "Carmen",
    "city_ascii": "Carmen",
    "admin_name": "Campeche",
    "lat": "18.6431",
    "lng": "-91.8306",
    "id": "1484620016"
  },
  {
    "city": "Monclova",
    "city_ascii": "Monclova",
    "admin_name": "Coahuila",
    "lat": "26.9103",
    "lng": "-101.4222",
    "id": "1484281759"
  },
  {
    "city": "García",
    "city_ascii": "Garcia",
    "admin_name": "Nuevo León",
    "lat": "25.8167",
    "lng": "-100.5833",
    "id": "1484753599"
  },
  {
    "city": "Fresnillo",
    "city_ascii": "Fresnillo",
    "admin_name": "Zacatecas",
    "lat": "23.1750",
    "lng": "-102.8675",
    "id": "1484014035"
  },
  {
    "city": "Chilpancingo",
    "city_ascii": "Chilpancingo",
    "admin_name": "Guerrero",
    "lat": "17.5500",
    "lng": "-99.5000",
    "id": "1484290575"
  },
  {
    "city": "Puerto Vallarta",
    "city_ascii": "Puerto Vallarta",
    "admin_name": "Jalisco",
    "lat": "20.6458",
    "lng": "-105.2222",
    "id": "1484408906"
  },
  {
    "city": "Tapachula",
    "city_ascii": "Tapachula",
    "admin_name": "Chiapas",
    "lat": "14.9000",
    "lng": "-92.2667",
    "id": "1484997178"
  },
  {
    "city": "Jiutepec",
    "city_ascii": "Jiutepec",
    "admin_name": "Morelos",
    "lat": "18.8833",
    "lng": "-99.1667",
    "id": "1484001709"
  },
  {
    "city": "Comalcalco",
    "city_ascii": "Comalcalco",
    "admin_name": "Tabasco",
    "lat": "18.2801",
    "lng": "-93.2018",
    "id": "1484317909"
  },
  {
    "city": "Zamora",
    "city_ascii": "Zamora",
    "admin_name": "Michoacán",
    "lat": "19.9833",
    "lng": "-102.2833",
    "id": "1484229977"
  },
  {
    "city": "Córdoba",
    "city_ascii": "Cordoba",
    "admin_name": "Veracruz",
    "lat": "18.8942",
    "lng": "-96.9347",
    "id": "1484179679"
  },
  {
    "city": "Cabo San Lucas",
    "city_ascii": "Cabo San Lucas",
    "admin_name": "Baja California Sur",
    "lat": "22.8897",
    "lng": "-109.9156",
    "id": "1484694325"
  },
  {
    "city": "El Tezal",
    "city_ascii": "El Tezal",
    "admin_name": "Baja California Sur",
    "lat": "22.8897",
    "lng": "-109.9156",
    "id": "1484747622"
  },
  {
    "city": "Ciudad Madero",
    "city_ascii": "Ciudad Madero",
    "admin_name": "Tamaulipas",
    "lat": "22.2475",
    "lng": "-97.8375",
    "id": "1484185237"
  },
  {
    "city": "Cuautla",
    "city_ascii": "Cuautla",
    "admin_name": "Morelos",
    "lat": "18.8167",
    "lng": "-98.9500",
    "id": "1484359683"
  },
  {
    "city": "Guanajuato",
    "city_ascii": "Guanajuato",
    "admin_name": "Guanajuato",
    "lat": "21.0178",
    "lng": "-101.2567",
    "id": "1484185068"
  },
  {
    "city": "Cholula de Rivadabia",
    "city_ascii": "Cholula de Rivadabia",
    "admin_name": "Puebla",
    "lat": "19.0633",
    "lng": "-98.3064",
    "id": "1484237822"
  },
  {
    "city": "Ciudad del Carmen",
    "city_ascii": "Ciudad del Carmen",
    "admin_name": "Campeche",
    "lat": "18.6333",
    "lng": "-91.8333",
    "id": "1484192447"
  },
  {
    "city": "Manzanillo",
    "city_ascii": "Manzanillo",
    "admin_name": "Colima",
    "lat": "19.0522",
    "lng": "-104.3158",
    "id": "1484223913"
  },
  {
    "city": "Poza Rica de Hidalgo",
    "city_ascii": "Poza Rica de Hidalgo",
    "admin_name": "Veracruz",
    "lat": "20.5333",
    "lng": "-97.4500",
    "id": "1484808798"
  },
  {
    "city": "San Cristóbal",
    "city_ascii": "San Cristobal",
    "admin_name": "Chiapas",
    "lat": "16.7367",
    "lng": "-92.6383",
    "id": "1484451215"
  },
  {
    "city": "Cuauhtémoc",
    "city_ascii": "Cuauhtemoc",
    "admin_name": "Chihuahua",
    "lat": "28.4050",
    "lng": "-106.8667",
    "id": "1484365643"
  },
  {
    "city": "Cuautitlán",
    "city_ascii": "Cuautitlan",
    "admin_name": "México",
    "lat": "19.6833",
    "lng": "-99.1833",
    "id": "1484256075"
  },
  {
    "city": "Ciudad Valles",
    "city_ascii": "Ciudad Valles",
    "admin_name": "San Luis Potosí",
    "lat": "21.9833",
    "lng": "-99.0167",
    "id": "1484904610"
  },
  {
    "city": "San Luis Río Colorado",
    "city_ascii": "San Luis Rio Colorado",
    "admin_name": "Sonora",
    "lat": "32.4767",
    "lng": "-114.7625",
    "id": "1484573106"
  },
  {
    "city": "Santa María Texmelucan",
    "city_ascii": "Santa Maria Texmelucan",
    "admin_name": "Puebla",
    "lat": "19.2833",
    "lng": "-98.4333",
    "id": "1484127851"
  },
  {
    "city": "Chicoloapan",
    "city_ascii": "Chicoloapan",
    "admin_name": "México",
    "lat": "19.4167",
    "lng": "-98.9000",
    "id": "1484980825"
  },
  {
    "city": "Piedras Negras",
    "city_ascii": "Piedras Negras",
    "admin_name": "Coahuila",
    "lat": "28.7000",
    "lng": "-100.5231",
    "id": "1484000400"
  },
  {
    "city": "Lagos de Moreno",
    "city_ascii": "Lagos de Moreno",
    "admin_name": "Jalisco",
    "lat": "21.3500",
    "lng": "-101.9167",
    "id": "1484759605"
  },
  {
    "city": "Guadalupe",
    "city_ascii": "Guadalupe",
    "admin_name": "Zacatecas",
    "lat": "22.7528",
    "lng": "-102.5078",
    "id": "1484781342"
  },
  {
    "city": "Chetumal",
    "city_ascii": "Chetumal",
    "admin_name": "Quintana Roo",
    "lat": "18.5036",
    "lng": "-88.3053",
    "id": "1484338031"
  },
  {
    "city": "San Martin Texmelucan de Labastida",
    "city_ascii": "San Martin Texmelucan de Labastida",
    "admin_name": "Puebla",
    "lat": "19.2833",
    "lng": "-98.4333",
    "id": "1484481265"
  },
  {
    "city": "Tuxtepec",
    "city_ascii": "Tuxtepec",
    "admin_name": "Oaxaca",
    "lat": "18.1000",
    "lng": "-96.1167",
    "id": "1484448356"
  },
  {
    "city": "San Andrés Tuxtla",
    "city_ascii": "San Andres Tuxtla",
    "admin_name": "Veracruz",
    "lat": "18.4483",
    "lng": "-95.2122",
    "id": "1484871648"
  },
  {
    "city": "Papantla de Olarte",
    "city_ascii": "Papantla de Olarte",
    "admin_name": "Veracruz",
    "lat": "20.4478",
    "lng": "-97.3200",
    "id": "1484844355"
  },
  {
    "city": "Ciudad Acuña",
    "city_ascii": "Ciudad Acuna",
    "admin_name": "Coahuila",
    "lat": "29.3242",
    "lng": "-100.9317",
    "id": "1484828397"
  },
  {
    "city": "Macuspana",
    "city_ascii": "Macuspana",
    "admin_name": "Tabasco",
    "lat": "17.7667",
    "lng": "-92.6000",
    "id": "1484086926"
  },
  {
    "city": "Guaymas",
    "city_ascii": "Guaymas",
    "admin_name": "Sonora",
    "lat": "27.9183",
    "lng": "-110.8933",
    "id": "1484822562"
  },
  {
    "city": "Ixtlahuaca",
    "city_ascii": "Ixtlahuaca",
    "admin_name": "México",
    "lat": "19.5689",
    "lng": "-99.7669",
    "id": "1484837068"
  },
  {
    "city": "Tulancingo",
    "city_ascii": "Tulancingo",
    "admin_name": "Hidalgo",
    "lat": "20.0833",
    "lng": "-98.3667",
    "id": "1484419416"
  },
  {
    "city": "Delicias",
    "city_ascii": "Delicias",
    "admin_name": "Chihuahua",
    "lat": "28.1931",
    "lng": "-105.4717",
    "id": "1484405772"
  },
  {
    "city": "Valle de Santiago",
    "city_ascii": "Valle de Santiago",
    "admin_name": "Guanajuato",
    "lat": "20.3900",
    "lng": "-101.2600",
    "id": "1484060538"
  },
  {
    "city": "Pénjamo",
    "city_ascii": "Penjamo",
    "admin_name": "Guanajuato",
    "lat": "20.4311",
    "lng": "-101.7222",
    "id": "1484131107"
  },
  {
    "city": "Villa de Álvarez",
    "city_ascii": "Villa de Alvarez",
    "admin_name": "Colima",
    "lat": "19.2500",
    "lng": "-103.7333",
    "id": "1484653806"
  },
  {
    "city": "Zacatecas",
    "city_ascii": "Zacatecas",
    "admin_name": "Zacatecas",
    "lat": "22.7736",
    "lng": "-102.5736",
    "id": "1484118312"
  },
  {
    "city": "Pesquería",
    "city_ascii": "Pesqueria",
    "admin_name": "Nuevo León",
    "lat": "25.7850",
    "lng": "-100.0511",
    "id": "1484002865"
  },
  {
    "city": "Colima",
    "city_ascii": "Colima",
    "admin_name": "Colima",
    "lat": "19.2433",
    "lng": "-103.7247",
    "id": "1484585697"
  },
  {
    "city": "Tepatitlán de Morelos",
    "city_ascii": "Tepatitlan de Morelos",
    "admin_name": "Jalisco",
    "lat": "20.8139",
    "lng": "-102.7639",
    "id": "1484777621"
  },
  {
    "city": "Las Maravillas",
    "city_ascii": "Las Maravillas",
    "admin_name": "Chiapas",
    "lat": "16.3667",
    "lng": "-91.7333",
    "id": "1484792236"
  },
  {
    "city": "Cuautitlán Izcalli",
    "city_ascii": "Cuautitlan Izcalli",
    "admin_name": "México",
    "lat": "19.6500",
    "lng": "-99.2500",
    "id": "1484282338"
  },
  {
    "city": "Kanasín",
    "city_ascii": "Kanasin",
    "admin_name": "Yucatán",
    "lat": "20.9344",
    "lng": "-89.5578",
    "id": "1484390572"
  },
  {
    "city": "Cunduacán",
    "city_ascii": "Cunduacan",
    "admin_name": "Tabasco",
    "lat": "18.0667",
    "lng": "-93.1667",
    "id": "1484076708"
  },
  {
    "city": "San José del Cabo",
    "city_ascii": "San Jose del Cabo",
    "admin_name": "Baja California Sur",
    "lat": "23.0614",
    "lng": "-109.7081",
    "id": "1484157742"
  },
  {
    "city": "Zinacantepec",
    "city_ascii": "Zinacantepec",
    "admin_name": "México",
    "lat": "19.2833",
    "lng": "-99.7333",
    "id": "1484976252"
  },
  {
    "city": "Tultepec",
    "city_ascii": "Tultepec",
    "admin_name": "México",
    "lat": "19.6850",
    "lng": "-99.1281",
    "id": "1484818856"
  },
  {
    "city": "Apatzingan de la Constitucion",
    "city_ascii": "Apatzingan de la Constitucion",
    "admin_name": "Michoacán",
    "lat": "19.0886",
    "lng": "-102.3508",
    "id": "1484693242"
  },
  {
    "city": "Orizaba",
    "city_ascii": "Orizaba",
    "admin_name": "Veracruz",
    "lat": "18.8500",
    "lng": "-97.1000",
    "id": "1484766767"
  },
  {
    "city": "San Pedro Garza García",
    "city_ascii": "San Pedro Garza Garcia",
    "admin_name": "Nuevo León",
    "lat": "25.6667",
    "lng": "-100.3000",
    "id": "1484228590"
  },
  {
    "city": "Ciudad Hidalgo",
    "city_ascii": "Ciudad Hidalgo",
    "admin_name": "Michoacán",
    "lat": "19.6917",
    "lng": "-100.5536",
    "id": "1484580926"
  },
  {
    "city": "Navojoa",
    "city_ascii": "Navojoa",
    "admin_name": "Sonora",
    "lat": "27.0813",
    "lng": "-109.4461",
    "id": "1484166303"
  },
  {
    "city": "Chilapa de Álvarez",
    "city_ascii": "Chilapa de Alvarez",
    "admin_name": "Guerrero",
    "lat": "17.5944",
    "lng": "-99.1778",
    "id": "1484562441"
  },
  {
    "city": "Tizayuca",
    "city_ascii": "Tizayuca",
    "admin_name": "Hidalgo",
    "lat": "19.8333",
    "lng": "-98.9833",
    "id": "1484244950"
  },
  {
    "city": "Miramar",
    "city_ascii": "Miramar",
    "admin_name": "Tamaulipas",
    "lat": "22.3375",
    "lng": "-97.8694",
    "id": "1484353090"
  },
  {
    "city": "Iguala de la Independencia",
    "city_ascii": "Iguala de la Independencia",
    "admin_name": "Guerrero",
    "lat": "18.3450",
    "lng": "-99.5383",
    "id": "1484280781"
  },
  {
    "city": "Matamoros",
    "city_ascii": "Matamoros",
    "admin_name": "Coahuila",
    "lat": "25.5330",
    "lng": "-103.2500",
    "id": "1484930279"
  },
  {
    "city": "Heroica Guaymas",
    "city_ascii": "Heroica Guaymas",
    "admin_name": "Sonora",
    "lat": "27.9183",
    "lng": "-110.8989",
    "id": "1484689704"
  },
  {
    "city": "Tecomán",
    "city_ascii": "Tecoman",
    "admin_name": "Colima",
    "lat": "18.9089",
    "lng": "-103.8747",
    "id": "1484348795"
  },
  {
    "city": "Temixco",
    "city_ascii": "Temixco",
    "admin_name": "Morelos",
    "lat": "18.8500",
    "lng": "-99.2333",
    "id": "1484273506"
  },
  {
    "city": "El Pueblito",
    "city_ascii": "El Pueblito",
    "admin_name": "Querétaro",
    "lat": "20.5397",
    "lng": "-100.4414",
    "id": "1484084843"
  },
  {
    "city": "Ciudad Guzmán",
    "city_ascii": "Ciudad Guzman",
    "admin_name": "Jalisco",
    "lat": "19.7000",
    "lng": "-103.4667",
    "id": "1484316056"
  },
  {
    "city": "Tlapacoyan",
    "city_ascii": "Tlapacoyan",
    "admin_name": "Veracruz",
    "lat": "19.9617",
    "lng": "-97.2108",
    "id": "1484434864"
  },
  {
    "city": "Comitán",
    "city_ascii": "Comitan",
    "admin_name": "Chiapas",
    "lat": "16.2500",
    "lng": "-92.1333",
    "id": "1484955658"
  },
  {
    "city": "Chilón",
    "city_ascii": "Chilon",
    "admin_name": "Chiapas",
    "lat": "17.2333",
    "lng": "-92.4167",
    "id": "1484862349"
  },
  {
    "city": "San Antonio la Isla",
    "city_ascii": "San Antonio la Isla",
    "admin_name": "México",
    "lat": "19.1677",
    "lng": "-99.5542",
    "id": "1484369728"
  },
  {
    "city": "San Antonio Enchisi",
    "city_ascii": "San Antonio Enchisi",
    "admin_name": "México",
    "lat": "19.7072",
    "lng": "-99.7867",
    "id": "1484770456"
  },
  {
    "city": "Martínez de la Torre",
    "city_ascii": "Martinez de la Torre",
    "admin_name": "Veracruz",
    "lat": "20.0667",
    "lng": "-97.0500",
    "id": "1484150240"
  },
  {
    "city": "San Francisco de la Piedad",
    "city_ascii": "San Francisco de la Piedad",
    "admin_name": "Guanajuato",
    "lat": "20.0325",
    "lng": "-100.7214",
    "id": "1484681430"
  },
  {
    "city": "Ocotlán",
    "city_ascii": "Ocotlan",
    "admin_name": "Jalisco",
    "lat": "20.3467",
    "lng": "-102.7744",
    "id": "1484159296"
  },
  {
    "city": "Temoaya",
    "city_ascii": "Temoaya",
    "admin_name": "México",
    "lat": "19.4686",
    "lng": "-99.5933",
    "id": "1484890875"
  },
  {
    "city": "Lerma",
    "city_ascii": "Lerma",
    "admin_name": "México",
    "lat": "19.2847",
    "lng": "-99.5119",
    "id": "1484402392"
  },
  {
    "city": "Texcoco",
    "city_ascii": "Texcoco",
    "admin_name": "México",
    "lat": "19.5200",
    "lng": "-98.8800",
    "id": "1484653265"
  },
  {
    "city": "Parral",
    "city_ascii": "Parral",
    "admin_name": "Chihuahua",
    "lat": "26.9333",
    "lng": "-105.6667",
    "id": "1484607603"
  },
  {
    "city": "Tenancingo",
    "city_ascii": "Tenancingo",
    "admin_name": "México",
    "lat": "18.9608",
    "lng": "-99.5906",
    "id": "1484006247"
  },
  {
    "city": "Tula de Allende",
    "city_ascii": "Tula de Allende",
    "admin_name": "Hidalgo",
    "lat": "20.0500",
    "lng": "-99.3500",
    "id": "1484845374"
  },
  {
    "city": "Tepexpan",
    "city_ascii": "Tepexpan",
    "admin_name": "México",
    "lat": "19.6192",
    "lng": "-98.9353",
    "id": "1484184592"
  },
  {
    "city": "Matehuala",
    "city_ascii": "Matehuala",
    "admin_name": "San Luis Potosí",
    "lat": "23.6528",
    "lng": "-100.6444",
    "id": "1484682498"
  },
  {
    "city": "Ciudad Río Bravo",
    "city_ascii": "Ciudad Rio Bravo",
    "admin_name": "Tamaulipas",
    "lat": "25.9861",
    "lng": "-98.0889",
    "id": "1484549731"
  },
  {
    "city": "Playas de Rosarito",
    "city_ascii": "Playas de Rosarito",
    "admin_name": "Baja California",
    "lat": "32.3422",
    "lng": "-117.0561",
    "id": "1484522993"
  },
  {
    "city": "San Felipe del Progreso",
    "city_ascii": "San Felipe del Progreso",
    "admin_name": "México",
    "lat": "19.7125",
    "lng": "-99.9511",
    "id": "1484781559"
  },
  {
    "city": "Ixmiquilpan",
    "city_ascii": "Ixmiquilpan",
    "admin_name": "Hidalgo",
    "lat": "20.4819",
    "lng": "-99.2181",
    "id": "1484683374"
  },
  {
    "city": "Pátzcuaro",
    "city_ascii": "Patzcuaro",
    "admin_name": "Michoacán",
    "lat": "19.5164",
    "lng": "-101.6097",
    "id": "1484039505"
  },
  {
    "city": "Tamazunchale",
    "city_ascii": "Tamazunchale",
    "admin_name": "San Luis Potosí",
    "lat": "21.2667",
    "lng": "-98.7833",
    "id": "1484802864"
  },
  {
    "city": "Paraíso",
    "city_ascii": "Paraiso",
    "admin_name": "Tabasco",
    "lat": "18.3961",
    "lng": "-93.2128",
    "id": "1484393519"
  },
  {
    "city": "Rincón de Romos",
    "city_ascii": "Rincon de Romos",
    "admin_name": "Aguascalientes",
    "lat": "22.2333",
    "lng": "-102.3167",
    "id": "1484371427"
  },
  {
    "city": "Santa Cruz Xoxocotlán",
    "city_ascii": "Santa Cruz Xoxocotlan",
    "admin_name": "Oaxaca",
    "lat": "17.0264",
    "lng": "-96.7333",
    "id": "1484706021"
  },
  {
    "city": "Teziutlan",
    "city_ascii": "Teziutlan",
    "admin_name": "Puebla",
    "lat": "19.8178",
    "lng": "-97.3667",
    "id": "1484709570"
  },
  {
    "city": "Coatepec",
    "city_ascii": "Coatepec",
    "admin_name": "Veracruz",
    "lat": "19.4522",
    "lng": "-96.9614",
    "id": "1484934939"
  },
  {
    "city": "San José del Rincón Centro",
    "city_ascii": "San Jose del Rincon Centro",
    "admin_name": "México",
    "lat": "19.6606",
    "lng": "-100.1525",
    "id": "1484390046"
  },
  {
    "city": "Agua Prieta",
    "city_ascii": "Agua Prieta",
    "admin_name": "Sonora",
    "lat": "31.3258",
    "lng": "-109.5489",
    "id": "1484381848"
  },
  {
    "city": "Ciudad de Atlixco",
    "city_ascii": "Ciudad de Atlixco",
    "admin_name": "Puebla",
    "lat": "18.9000",
    "lng": "-98.4500",
    "id": "1484268457"
  },
  {
    "city": "San Francisco",
    "city_ascii": "San Francisco",
    "admin_name": "Sonora",
    "lat": "30.7841",
    "lng": "-112.5180",
    "id": "1484657489"
  },
  {
    "city": "Jilotepec",
    "city_ascii": "Jilotepec",
    "admin_name": "México",
    "lat": "19.9519",
    "lng": "-99.5328",
    "id": "1484789785"
  },
  {
    "city": "Salinas Victoria",
    "city_ascii": "Salinas Victoria",
    "admin_name": "Nuevo León",
    "lat": "25.9667",
    "lng": "-100.3000",
    "id": "1484014927"
  },
  {
    "city": "Santa Rosa Jauregui",
    "city_ascii": "Santa Rosa Jauregui",
    "admin_name": "Querétaro",
    "lat": "20.7418",
    "lng": "-100.4473",
    "id": "1484681374"
  },
  {
    "city": "Guasave",
    "city_ascii": "Guasave",
    "admin_name": "Sinaloa",
    "lat": "25.5655",
    "lng": "-108.4718",
    "id": "1484450749"
  },
  {
    "city": "Apaseo el Grande",
    "city_ascii": "Apaseo el Grande",
    "admin_name": "Guanajuato",
    "lat": "20.5531",
    "lng": "-100.6347",
    "id": "1484338735"
  },
  {
    "city": "Ciudad Mante",
    "city_ascii": "Ciudad Mante",
    "admin_name": "Tamaulipas",
    "lat": "22.7333",
    "lng": "-98.9500",
    "id": "1484536173"
  },
  {
    "city": "Túxpam de Rodríguez Cano",
    "city_ascii": "Tuxpam de Rodriguez Cano",
    "admin_name": "Veracruz",
    "lat": "20.9500",
    "lng": "-97.4000",
    "id": "1484316468"
  },
  {
    "city": "Acayucan",
    "city_ascii": "Acayucan",
    "admin_name": "Veracruz",
    "lat": "17.9422",
    "lng": "-94.9103",
    "id": "1484349924"
  },
  {
    "city": "La Piedad",
    "city_ascii": "La Piedad",
    "admin_name": "Michoacán",
    "lat": "20.3333",
    "lng": "-102.0167",
    "id": "1484779296"
  },
  {
    "city": "La Trinidad",
    "city_ascii": "La Trinidad",
    "admin_name": "Chiapas",
    "lat": "15.9833",
    "lng": "-91.8667",
    "id": "1484023235"
  },
  {
    "city": "Villa Vicente Guerrero",
    "city_ascii": "Villa Vicente Guerrero",
    "admin_name": "Tlaxcala",
    "lat": "19.1190",
    "lng": "-98.1700",
    "id": "1484274098"
  },
  {
    "city": "Comonfort",
    "city_ascii": "Comonfort",
    "admin_name": "Guanajuato",
    "lat": "20.7167",
    "lng": "-100.7667",
    "id": "1484359235"
  },
  {
    "city": "Apizaco",
    "city_ascii": "Apizaco",
    "admin_name": "Tlaxcala",
    "lat": "19.4167",
    "lng": "-98.1333",
    "id": "1484021647"
  },
  {
    "city": "Xicotepec de Juárez",
    "city_ascii": "Xicotepec de Juarez",
    "admin_name": "Puebla",
    "lat": "20.3000",
    "lng": "-97.9667",
    "id": "1484427246"
  },
  {
    "city": "Salina Cruz",
    "city_ascii": "Salina Cruz",
    "admin_name": "Oaxaca",
    "lat": "16.1833",
    "lng": "-95.2083",
    "id": "1484364230"
  },
  {
    "city": "Tecate",
    "city_ascii": "Tecate",
    "admin_name": "Baja California",
    "lat": "32.5722",
    "lng": "-116.6403",
    "id": "1484547809"
  },
  {
    "city": "Tala",
    "city_ascii": "Tala",
    "admin_name": "Jalisco",
    "lat": "20.6667",
    "lng": "-103.7000",
    "id": "1484003075"
  },
  {
    "city": "Maravatío de Ocampo",
    "city_ascii": "Maravatio de Ocampo",
    "admin_name": "Michoacán",
    "lat": "19.8976",
    "lng": "-100.4500",
    "id": "1484174386"
  },
  {
    "city": "San Andrés Cholula",
    "city_ascii": "San Andres Cholula",
    "admin_name": "Puebla",
    "lat": "19.0500",
    "lng": "-98.3000",
    "id": "1484648176"
  },
  {
    "city": "Ciudad Lerdo",
    "city_ascii": "Ciudad Lerdo",
    "admin_name": "Durango",
    "lat": "25.5500",
    "lng": "-103.5167",
    "id": "1484980436"
  },
  {
    "city": "Ciudad Lázaro Cárdenas",
    "city_ascii": "Ciudad Lazaro Cardenas",
    "admin_name": "Michoacán",
    "lat": "17.9561",
    "lng": "-102.1922",
    "id": "1484804575"
  },
  {
    "city": "Sahuayo de Morelos",
    "city_ascii": "Sahuayo de Morelos",
    "admin_name": "Michoacán",
    "lat": "20.0500",
    "lng": "-102.7333",
    "id": "1484554120"
  },
  {
    "city": "Villa Victoria",
    "city_ascii": "Villa Victoria",
    "admin_name": "México",
    "lat": "19.4333",
    "lng": "-100.0000",
    "id": "1484528358"
  },
  {
    "city": "Huebampo",
    "city_ascii": "Huebampo",
    "admin_name": "Sonora",
    "lat": "26.7228",
    "lng": "-109.4856",
    "id": "1484527916"
  },
  {
    "city": "Perote",
    "city_ascii": "Perote",
    "admin_name": "Veracruz",
    "lat": "19.5619",
    "lng": "-97.2419",
    "id": "1484668149"
  },
  {
    "city": "Cozumel",
    "city_ascii": "Cozumel",
    "admin_name": "Quintana Roo",
    "lat": "20.5104",
    "lng": "-86.9493",
    "id": "1484935305"
  },
  {
    "city": "Tecamachalco",
    "city_ascii": "Tecamachalco",
    "admin_name": "Puebla",
    "lat": "18.8667",
    "lng": "-97.7167",
    "id": "1484013224"
  },
  {
    "city": "Tacámbaro de Codallos",
    "city_ascii": "Tacambaro de Codallos",
    "admin_name": "Michoacán",
    "lat": "19.2356",
    "lng": "-101.4569",
    "id": "1484508699"
  },
  {
    "city": "Cadereyta Jiménez",
    "city_ascii": "Cadereyta Jimenez",
    "admin_name": "Nuevo León",
    "lat": "25.6000",
    "lng": "-100.0000",
    "id": "1484839099"
  },
  {
    "city": "Frontera",
    "city_ascii": "Frontera",
    "admin_name": "Coahuila",
    "lat": "26.9260",
    "lng": "-101.4490",
    "id": "1484811972"
  },
  {
    "city": "Juchitán de Zaragoza",
    "city_ascii": "Juchitan de Zaragoza",
    "admin_name": "Oaxaca",
    "lat": "16.4333",
    "lng": "-95.0167",
    "id": "1484386317"
  },
  {
    "city": "Silao",
    "city_ascii": "Silao",
    "admin_name": "Guanajuato",
    "lat": "20.9478",
    "lng": "-101.4281",
    "id": "1484276023"
  },
  {
    "city": "San Francisco del Rincón",
    "city_ascii": "San Francisco del Rincon",
    "admin_name": "Guanajuato",
    "lat": "21.0228",
    "lng": "-101.8600",
    "id": "1484674455"
  },
  {
    "city": "Tejupilco",
    "city_ascii": "Tejupilco",
    "admin_name": "México",
    "lat": "18.9058",
    "lng": "-100.1528",
    "id": "1484506998"
  },
  {
    "city": "Linares",
    "city_ascii": "Linares",
    "admin_name": "Nuevo León",
    "lat": "24.8597",
    "lng": "-99.5647",
    "id": "1484504671"
  },
  {
    "city": "San Miguel de Allende",
    "city_ascii": "San Miguel de Allende",
    "admin_name": "Guanajuato",
    "lat": "20.9142",
    "lng": "-100.7436",
    "id": "1484007926"
  },
  {
    "city": "San Juan de los Lagos",
    "city_ascii": "San Juan de los Lagos",
    "admin_name": "Jalisco",
    "lat": "21.2458",
    "lng": "-102.3308",
    "id": "1484319370"
  },
  {
    "city": "Los Reyes de Salgado",
    "city_ascii": "Los Reyes de Salgado",
    "admin_name": "Michoacán",
    "lat": "19.5833",
    "lng": "-102.4667",
    "id": "1484279186"
  },
  {
    "city": "Rioverde",
    "city_ascii": "Rioverde",
    "admin_name": "San Luis Potosí",
    "lat": "21.9300",
    "lng": "-99.9800",
    "id": "1484341437"
  },
  {
    "city": "Izúcar de Matamoros",
    "city_ascii": "Izucar de Matamoros",
    "admin_name": "Puebla",
    "lat": "18.6000",
    "lng": "-98.4667",
    "id": "1484858520"
  },
  {
    "city": "Ixtaczoquitlán",
    "city_ascii": "Ixtaczoquitlan",
    "admin_name": "Veracruz",
    "lat": "18.8500",
    "lng": "-97.0667",
    "id": "1484464346"
  },
  {
    "city": "Purísima de Bustos",
    "city_ascii": "Purisima de Bustos",
    "admin_name": "Guanajuato",
    "lat": "21.0333",
    "lng": "-101.8667",
    "id": "1484104201"
  },
  {
    "city": "Jacona de Plancarte",
    "city_ascii": "Jacona de Plancarte",
    "admin_name": "Michoacán",
    "lat": "19.9333",
    "lng": "-102.3167",
    "id": "1484202328"
  },
  {
    "city": "Yuriria",
    "city_ascii": "Yuriria",
    "admin_name": "Guanajuato",
    "lat": "20.2000",
    "lng": "-101.1500",
    "id": "1484511222"
  },
  {
    "city": "Mineral de la Reforma",
    "city_ascii": "Mineral de la Reforma",
    "admin_name": "Hidalgo",
    "lat": "20.1500",
    "lng": "-98.4333",
    "id": "1484886107"
  },
  {
    "city": "Valle Hermoso",
    "city_ascii": "Valle Hermoso",
    "admin_name": "Tamaulipas",
    "lat": "25.6736",
    "lng": "-97.8144",
    "id": "1484479299"
  },
  {
    "city": "Zapotlanejo",
    "city_ascii": "Zapotlanejo",
    "admin_name": "Jalisco",
    "lat": "20.6228",
    "lng": "-103.0689",
    "id": "1484013669"
  },
  {
    "city": "Ixtlahuacán de los Membrillos",
    "city_ascii": "Ixtlahuacan de los Membrillos",
    "admin_name": "Jalisco",
    "lat": "20.3500",
    "lng": "-103.1833",
    "id": "1484370414"
  },
  {
    "city": "La Barca",
    "city_ascii": "La Barca",
    "admin_name": "Jalisco",
    "lat": "20.2833",
    "lng": "-102.5667",
    "id": "1484900173"
  },
  {
    "city": "Tepotzotlán",
    "city_ascii": "Tepotzotlan",
    "admin_name": "México",
    "lat": "19.7161",
    "lng": "-99.2236",
    "id": "1484890297"
  },
  {
    "city": "Santa Catarina Otzolotepec",
    "city_ascii": "Santa Catarina Otzolotepec",
    "admin_name": "Puebla",
    "lat": "18.5667",
    "lng": "-97.2500",
    "id": "1484006128"
  },
  {
    "city": "Heroica Caborca",
    "city_ascii": "Heroica Caborca",
    "admin_name": "Sonora",
    "lat": "30.7167",
    "lng": "-112.1500",
    "id": "1484993432"
  },
  {
    "city": "Zihuatanejo",
    "city_ascii": "Zihuatanejo",
    "admin_name": "Guerrero",
    "lat": "17.6444",
    "lng": "-101.5511",
    "id": "1484489217"
  },
  {
    "city": "Dolores Hidalgo Cuna de la Independencia Nacional",
    "city_ascii": "Dolores Hidalgo Cuna de la Independencia Nacional",
    "admin_name": "Guanajuato",
    "lat": "21.1516",
    "lng": "-100.9369",
    "id": "1484115665"
  },
  {
    "city": "San Mateo Atenco",
    "city_ascii": "San Mateo Atenco",
    "admin_name": "México",
    "lat": "19.2667",
    "lng": "-99.5333",
    "id": "1484296261"
  },
  {
    "city": "Ramos Arizpe",
    "city_ascii": "Ramos Arizpe",
    "admin_name": "Coahuila",
    "lat": "25.5500",
    "lng": "-100.9667",
    "id": "1484685820"
  },
  {
    "city": "Chignahuapan",
    "city_ascii": "Chignahuapan",
    "admin_name": "Puebla",
    "lat": "19.8333",
    "lng": "-98.0333",
    "id": "1484645158"
  },
  {
    "city": "Ocoyoacac",
    "city_ascii": "Ocoyoacac",
    "admin_name": "México",
    "lat": "19.2739",
    "lng": "-99.4606",
    "id": "1484479100"
  },
  {
    "city": "Torreón",
    "city_ascii": "Torreon",
    "admin_name": "Coahuila",
    "lat": "25.5419",
    "lng": "-103.4083",
    "id": "1484215762"
  },
  {
    "city": "Romita",
    "city_ascii": "Romita",
    "admin_name": "Guanajuato",
    "lat": "20.8708",
    "lng": "-101.5169",
    "id": "1484697777"
  },
  {
    "city": "Jocotitlán",
    "city_ascii": "Jocotitlan",
    "admin_name": "México",
    "lat": "19.7072",
    "lng": "-99.7867",
    "id": "1484167307"
  },
  {
    "city": "Autlán de Navarro",
    "city_ascii": "Autlan de Navarro",
    "admin_name": "Jalisco",
    "lat": "19.7667",
    "lng": "-104.3667",
    "id": "1484240559"
  },
  {
    "city": "Coyula",
    "city_ascii": "Coyula",
    "admin_name": "Jalisco",
    "lat": "20.6586",
    "lng": "-103.2264",
    "id": "1484778877"
  },
  {
    "city": "Sabinas",
    "city_ascii": "Sabinas",
    "admin_name": "Coahuila",
    "lat": "27.9167",
    "lng": "-101.3000",
    "id": "1484526560"
  },
  {
    "city": "Santo Domingo Tehuantepec",
    "city_ascii": "Santo Domingo Tehuantepec",
    "admin_name": "Oaxaca",
    "lat": "16.3244",
    "lng": "-95.2389",
    "id": "1484904308"
  },
  {
    "city": "Apaseo el Alto",
    "city_ascii": "Apaseo el Alto",
    "admin_name": "Guanajuato",
    "lat": "20.4500",
    "lng": "-100.6167",
    "id": "1484638153"
  },
  {
    "city": "Santiago Tianguistenco",
    "city_ascii": "Santiago Tianguistenco",
    "admin_name": "México",
    "lat": "19.1797",
    "lng": "-99.4706",
    "id": "1484113134"
  },
  {
    "city": "Misantla",
    "city_ascii": "Misantla",
    "admin_name": "Veracruz",
    "lat": "19.9333",
    "lng": "-96.8500",
    "id": "1484744150"
  },
  {
    "city": "Atotonilco el Alto",
    "city_ascii": "Atotonilco el Alto",
    "admin_name": "Jalisco",
    "lat": "20.5333",
    "lng": "-102.5000",
    "id": "1484290836"
  },
  {
    "city": "Guamúchil",
    "city_ascii": "Guamuchil",
    "admin_name": "Sinaloa",
    "lat": "25.4639",
    "lng": "-108.0794",
    "id": "1484709566"
  },
  {
    "city": "Teoloyucan",
    "city_ascii": "Teoloyucan",
    "admin_name": "México",
    "lat": "19.7442",
    "lng": "-99.1811",
    "id": "1484003827"
  },
  {
    "city": "Puerto Peñasco",
    "city_ascii": "Puerto Penasco",
    "admin_name": "Sonora",
    "lat": "31.3167",
    "lng": "-113.5369",
    "id": "1484567937"
  },
  {
    "city": "San Francisco de los Romo",
    "city_ascii": "San Francisco de los Romo",
    "admin_name": "Aguascalientes",
    "lat": "22.0833",
    "lng": "-102.2667",
    "id": "1484352122"
  },
  {
    "city": "Cortazar",
    "city_ascii": "Cortazar",
    "admin_name": "Guanajuato",
    "lat": "20.4828",
    "lng": "-100.9611",
    "id": "1484238779"
  },
  {
    "city": "Valle de Bravo",
    "city_ascii": "Valle de Bravo",
    "admin_name": "México",
    "lat": "19.1925",
    "lng": "-100.1306",
    "id": "1484105173"
  },
  {
    "city": "Huatusco",
    "city_ascii": "Huatusco",
    "admin_name": "Veracruz",
    "lat": "19.1489",
    "lng": "-96.9661",
    "id": "1484463389"
  },
  {
    "city": "Huejotzingo",
    "city_ascii": "Huejotzingo",
    "admin_name": "Puebla",
    "lat": "19.1619",
    "lng": "-98.4064",
    "id": "1484474577"
  },
  {
    "city": "Huehuetoca",
    "city_ascii": "Huehuetoca",
    "admin_name": "México",
    "lat": "19.8342",
    "lng": "-99.2033",
    "id": "1484000089"
  },
  {
    "city": "Altamira",
    "city_ascii": "Altamira",
    "admin_name": "Tamaulipas",
    "lat": "22.3375",
    "lng": "-97.8694",
    "id": "1484764524"
  },
  {
    "city": "Huauchinango",
    "city_ascii": "Huauchinango",
    "admin_name": "Puebla",
    "lat": "20.1767",
    "lng": "-98.0528",
    "id": "1484856743"
  },
  {
    "city": "Balancán",
    "city_ascii": "Balancan",
    "admin_name": "Tabasco",
    "lat": "17.8000",
    "lng": "-91.5333",
    "id": "1484783192"
  },
  {
    "city": "Mexquitic de Carmona",
    "city_ascii": "Mexquitic de Carmona",
    "admin_name": "San Luis Potosí",
    "lat": "22.2667",
    "lng": "-101.1167",
    "id": "1484703531"
  },
  {
    "city": "Temascalcingo",
    "city_ascii": "Temascalcingo",
    "admin_name": "México",
    "lat": "19.9147",
    "lng": "-100.0036",
    "id": "1484038182"
  },
  {
    "city": "Zempoala",
    "city_ascii": "Zempoala",
    "admin_name": "Hidalgo",
    "lat": "19.9153",
    "lng": "-98.6689",
    "id": "1484524155"
  },
  {
    "city": "Anahuac",
    "city_ascii": "Anahuac",
    "admin_name": "Veracruz",
    "lat": "22.1833",
    "lng": "-97.9333",
    "id": "1484994415"
  },
  {
    "city": "Jerez de García Salinas",
    "city_ascii": "Jerez de Garcia Salinas",
    "admin_name": "Zacatecas",
    "lat": "22.6481",
    "lng": "-102.9903",
    "id": "1484361423"
  },
  {
    "city": "Santiago Tuxtla",
    "city_ascii": "Santiago Tuxtla",
    "admin_name": "Veracruz",
    "lat": "18.4653",
    "lng": "-95.3025",
    "id": "1484009696"
  },
  {
    "city": "Cosamaloapan",
    "city_ascii": "Cosamaloapan",
    "admin_name": "Veracruz",
    "lat": "18.3676",
    "lng": "-95.7986",
    "id": "1484307969"
  },
  {
    "city": "Alvarado",
    "city_ascii": "Alvarado",
    "admin_name": "Veracruz",
    "lat": "18.7811",
    "lng": "-95.7572",
    "id": "1484208918"
  },
  {
    "city": "Tezonapa",
    "city_ascii": "Tezonapa",
    "admin_name": "Veracruz",
    "lat": "18.6000",
    "lng": "-96.6833",
    "id": "1484617215"
  },
  {
    "city": "Acambay",
    "city_ascii": "Acambay",
    "admin_name": "México",
    "lat": "19.9539",
    "lng": "-99.8431",
    "id": "1484667611"
  },
  {
    "city": "Acámbaro",
    "city_ascii": "Acambaro",
    "admin_name": "Guanajuato",
    "lat": "20.0361",
    "lng": "-100.7314",
    "id": "1484524073"
  },
  {
    "city": "Uman",
    "city_ascii": "Uman",
    "admin_name": "Yucatán",
    "lat": "20.8833",
    "lng": "-89.7500",
    "id": "1484009408"
  },
  {
    "city": "Chiapa de Corzo",
    "city_ascii": "Chiapa de Corzo",
    "admin_name": "Chiapas",
    "lat": "16.7069",
    "lng": "-93.0139",
    "id": "1484314420"
  },
  {
    "city": "Nuevo Casas Grandes",
    "city_ascii": "Nuevo Casas Grandes",
    "admin_name": "Chihuahua",
    "lat": "30.4167",
    "lng": "-107.9167",
    "id": "1484004002"
  },
  {
    "city": "Oxchuc",
    "city_ascii": "Oxchuc",
    "admin_name": "Chiapas",
    "lat": "16.7833",
    "lng": "-92.2833",
    "id": "1484221816"
  },
  {
    "city": "Ixhuatlán de Madero",
    "city_ascii": "Ixhuatlan de Madero",
    "admin_name": "Veracruz",
    "lat": "20.6833",
    "lng": "-98.0167",
    "id": "1484817314"
  },
  {
    "city": "Pinotepa",
    "city_ascii": "Pinotepa",
    "admin_name": "Oaxaca",
    "lat": "16.3401",
    "lng": "-98.0530",
    "id": "1484150923"
  },
  {
    "city": "Simojovel de Allende",
    "city_ascii": "Simojovel de Allende",
    "admin_name": "Chiapas",
    "lat": "17.1500",
    "lng": "-92.7167",
    "id": "1484425686"
  },
  {
    "city": "San José Villa de Allende",
    "city_ascii": "San Jose Villa de Allende",
    "admin_name": "México",
    "lat": "19.3747",
    "lng": "-100.1475",
    "id": "1484492033"
  },
  {
    "city": "Tizimín",
    "city_ascii": "Tizimin",
    "admin_name": "Yucatán",
    "lat": "21.1425",
    "lng": "-88.1647",
    "id": "1484254957"
  },
  {
    "city": "Tlacotepec",
    "city_ascii": "Tlacotepec",
    "admin_name": "Puebla",
    "lat": "18.6882",
    "lng": "-97.6489",
    "id": "1484013898"
  },
  {
    "city": "Taxco de Alarcón",
    "city_ascii": "Taxco de Alarcon",
    "admin_name": "Guerrero",
    "lat": "18.5564",
    "lng": "-99.6050",
    "id": "1484987082"
  },
  {
    "city": "Uriangato",
    "city_ascii": "Uriangato",
    "admin_name": "Guanajuato",
    "lat": "20.1333",
    "lng": "-101.1667",
    "id": "1484679933"
  },
  {
    "city": "Acatzingo",
    "city_ascii": "Acatzingo",
    "admin_name": "Puebla",
    "lat": "18.9817",
    "lng": "-97.7822",
    "id": "1484022961"
  },
  {
    "city": "Huamantla",
    "city_ascii": "Huamantla",
    "admin_name": "Tlaxcala",
    "lat": "19.3133",
    "lng": "-97.9228",
    "id": "1484180362"
  },
  {
    "city": "San Luis de la Paz",
    "city_ascii": "San Luis de la Paz",
    "admin_name": "Guanajuato",
    "lat": "21.3000",
    "lng": "-100.5167",
    "id": "1484137795"
  },
  {
    "city": "Palenque",
    "city_ascii": "Palenque",
    "admin_name": "Chiapas",
    "lat": "17.4333",
    "lng": "-91.8000",
    "id": "1484011438"
  },
  {
    "city": "Encarnación de Díaz",
    "city_ascii": "Encarnacion de Diaz",
    "admin_name": "Jalisco",
    "lat": "21.5167",
    "lng": "-102.2333",
    "id": "1484206173"
  },
  {
    "city": "Umán",
    "city_ascii": "Uman",
    "admin_name": "Yucatán",
    "lat": "20.8833",
    "lng": "-89.7500",
    "id": "1484028324"
  },
  {
    "city": "Zumpango",
    "city_ascii": "Zumpango",
    "admin_name": "México",
    "lat": "19.7969",
    "lng": "-99.0992",
    "id": "1484625824"
  },
  {
    "city": "Francisco I. Madero",
    "city_ascii": "Francisco I. Madero",
    "admin_name": "Coahuila",
    "lat": "25.7753",
    "lng": "-103.2731",
    "id": "1484764993"
  },
  {
    "city": "Tepeapulco",
    "city_ascii": "Tepeapulco",
    "admin_name": "Hidalgo",
    "lat": "19.7856",
    "lng": "-98.5517",
    "id": "1484457950"
  },
  {
    "city": "San Pedro",
    "city_ascii": "San Pedro",
    "admin_name": "Coahuila",
    "lat": "24.7260",
    "lng": "-102.9840",
    "id": "1484673086"
  },
  {
    "city": "Santa Lucía del Camino",
    "city_ascii": "Santa Lucia del Camino",
    "admin_name": "Oaxaca",
    "lat": "17.0667",
    "lng": "-96.7000",
    "id": "1484226980"
  },
  {
    "city": "Catemaco",
    "city_ascii": "Catemaco",
    "admin_name": "Veracruz",
    "lat": "18.4167",
    "lng": "-95.1167",
    "id": "1484469922"
  },
  {
    "city": "Cintalapa de Figueroa",
    "city_ascii": "Cintalapa de Figueroa",
    "admin_name": "Chiapas",
    "lat": "16.6978",
    "lng": "-93.7203",
    "id": "1484563700"
  },
  {
    "city": "Valladolid",
    "city_ascii": "Valladolid",
    "admin_name": "Yucatán",
    "lat": "20.6894",
    "lng": "-88.2017",
    "id": "1484332013"
  },
  {
    "city": "Jiménez",
    "city_ascii": "Jimenez",
    "admin_name": "Chihuahua",
    "lat": "27.1300",
    "lng": "-104.9067",
    "id": "1484452730"
  },
  {
    "city": "San Pedro Mixtepec",
    "city_ascii": "San Pedro Mixtepec",
    "admin_name": "Oaxaca",
    "lat": "16.0000",
    "lng": "-97.1169",
    "id": "1484546885"
  },
  {
    "city": "Ciudad Fernández",
    "city_ascii": "Ciudad Fernandez",
    "admin_name": "San Luis Potosí",
    "lat": "21.9500",
    "lng": "-100.0000",
    "id": "1484923404"
  },
  {
    "city": "Colonia del Sol",
    "city_ascii": "Colonia del Sol",
    "admin_name": "Baja California Sur",
    "lat": "22.9125",
    "lng": "-109.9208",
    "id": "1484445555"
  },
  {
    "city": "Cuetzalan",
    "city_ascii": "Cuetzalan",
    "admin_name": "Puebla",
    "lat": "20.0333",
    "lng": "-97.5167",
    "id": "1484831454"
  },
  {
    "city": "Ocosingo",
    "city_ascii": "Ocosingo",
    "admin_name": "Chiapas",
    "lat": "16.9072",
    "lng": "-92.0961",
    "id": "1484937914"
  },
  {
    "city": "Pabellón de Arteaga",
    "city_ascii": "Pabellon de Arteaga",
    "admin_name": "Aguascalientes",
    "lat": "22.1500",
    "lng": "-102.2667",
    "id": "1484799033"
  },
  {
    "city": "Buena Vista Tomatlán",
    "city_ascii": "Buena Vista Tomatlan",
    "admin_name": "Michoacán",
    "lat": "19.2102",
    "lng": "-102.5869",
    "id": "1484801408"
  },
  {
    "city": "Huichapan",
    "city_ascii": "Huichapan",
    "admin_name": "Hidalgo",
    "lat": "20.3733",
    "lng": "-99.6489",
    "id": "1484054165"
  },
  {
    "city": "Chenalhó",
    "city_ascii": "Chenalho",
    "admin_name": "Chiapas",
    "lat": "16.9333",
    "lng": "-92.5667",
    "id": "1484048952"
  },
  {
    "city": "Calimaya",
    "city_ascii": "Calimaya",
    "admin_name": "México",
    "lat": "19.1608",
    "lng": "-99.6172",
    "id": "1484137559"
  },
  {
    "city": "Santiago",
    "city_ascii": "Santiago",
    "admin_name": "Nuevo León",
    "lat": "25.4333",
    "lng": "-100.1333",
    "id": "1484043921"
  },
  {
    "city": "Teotihuacan",
    "city_ascii": "Teotihuacan",
    "admin_name": "México",
    "lat": "19.6897",
    "lng": "-98.8608",
    "id": "1484416743"
  },
  {
    "city": "Santa Ana Chiautempan",
    "city_ascii": "Santa Ana Chiautempan",
    "admin_name": "Tlaxcala",
    "lat": "19.3167",
    "lng": "-98.1833",
    "id": "1484567035"
  },
  {
    "city": "El Dorado",
    "city_ascii": "El Dorado",
    "admin_name": "Sinaloa",
    "lat": "24.3231",
    "lng": "-107.3631",
    "id": "1484719986"
  },
  {
    "city": "La Independencia",
    "city_ascii": "La Independencia",
    "admin_name": "Chiapas",
    "lat": "16.2526",
    "lng": "-92.0237",
    "id": "1484210828"
  },
  {
    "city": "Tlalmanalco",
    "city_ascii": "Tlalmanalco",
    "admin_name": "México",
    "lat": "19.2044",
    "lng": "-98.8025",
    "id": "1484054902"
  },
  {
    "city": "Acaxochitlán",
    "city_ascii": "Acaxochitlan",
    "admin_name": "Hidalgo",
    "lat": "20.1667",
    "lng": "-98.2000",
    "id": "1484005465"
  },
  {
    "city": "Santa María Huatulco",
    "city_ascii": "Santa Maria Huatulco",
    "admin_name": "Oaxaca",
    "lat": "15.8500",
    "lng": "-96.3333",
    "id": "1484007409"
  },
  {
    "city": "Guacharachi",
    "city_ascii": "Guacharachi",
    "admin_name": "Chihuahua",
    "lat": "27.1500",
    "lng": "-107.3167",
    "id": "1484013438"
  },
  {
    "city": "Cuautepec de Hinojosa",
    "city_ascii": "Cuautepec de Hinojosa",
    "admin_name": "Hidalgo",
    "lat": "20.1500",
    "lng": "-98.4333",
    "id": "1484413126"
  },
  {
    "city": "Ciudad de Huajuapam de León",
    "city_ascii": "Ciudad de Huajuapam de Leon",
    "admin_name": "Oaxaca",
    "lat": "17.8000",
    "lng": "-97.7667",
    "id": "1484375272"
  },
  {
    "city": "Montemorelos",
    "city_ascii": "Montemorelos",
    "admin_name": "Nuevo León",
    "lat": "25.1872",
    "lng": "-99.8267",
    "id": "1484813948"
  },
  {
    "city": "Tres Valles",
    "city_ascii": "Tres Valles",
    "admin_name": "Veracruz",
    "lat": "18.1667",
    "lng": "-96.0167",
    "id": "1484297361"
  },
  {
    "city": "Jalacingo",
    "city_ascii": "Jalacingo",
    "admin_name": "Veracruz",
    "lat": "19.6000",
    "lng": "-97.2167",
    "id": "1484760292"
  },
  {
    "city": "Petatlán",
    "city_ascii": "Petatlan",
    "admin_name": "Guerrero",
    "lat": "17.5383",
    "lng": "-101.2739",
    "id": "1484714363"
  },
  {
    "city": "Tlajomulco de Zúñiga",
    "city_ascii": "Tlajomulco de Zuniga",
    "admin_name": "Jalisco",
    "lat": "20.4736",
    "lng": "-103.4431",
    "id": "1484017493"
  },
  {
    "city": "Zongolica",
    "city_ascii": "Zongolica",
    "admin_name": "Veracruz",
    "lat": "18.6667",
    "lng": "-97.0000",
    "id": "1484604711"
  },
  {
    "city": "Ciudad Constitución",
    "city_ascii": "Ciudad Constitucion",
    "admin_name": "Baja California Sur",
    "lat": "25.0322",
    "lng": "-111.6703",
    "id": "1484811681"
  },
  {
    "city": "Pedro Celestino Negrete",
    "city_ascii": "Pedro Celestino Negrete",
    "admin_name": "Durango",
    "lat": "24.6113",
    "lng": "-103.0944",
    "id": "1484247270"
  },
  {
    "city": "Loreto",
    "city_ascii": "Loreto",
    "admin_name": "Zacatecas",
    "lat": "22.2667",
    "lng": "-101.9833",
    "id": "1484384276"
  },
  {
    "city": "Actopan",
    "city_ascii": "Actopan",
    "admin_name": "Veracruz",
    "lat": "19.5036",
    "lng": "-96.6192",
    "id": "1484594634"
  },
  {
    "city": "Isla",
    "city_ascii": "Isla",
    "admin_name": "Veracruz",
    "lat": "18.0333",
    "lng": "-95.5333",
    "id": "1484843047"
  },
  {
    "city": "Hueyapan de Ocampo",
    "city_ascii": "Hueyapan de Ocampo",
    "admin_name": "Veracruz",
    "lat": "18.1500",
    "lng": "-95.1500",
    "id": "1484670918"
  },
  {
    "city": "Ocozocoautla de Espinosa",
    "city_ascii": "Ocozocoautla de Espinosa",
    "admin_name": "Chiapas",
    "lat": "16.7500",
    "lng": "-93.3667",
    "id": "1484720187"
  },
  {
    "city": "Jesús María",
    "city_ascii": "Jesus Maria",
    "admin_name": "Aguascalientes",
    "lat": "21.9667",
    "lng": "-102.3500",
    "id": "1484096692"
  },
  {
    "city": "Tepalcatepec",
    "city_ascii": "Tepalcatepec",
    "admin_name": "Michoacán",
    "lat": "19.1833",
    "lng": "-102.8500",
    "id": "1484817788"
  },
  {
    "city": "Atenco",
    "city_ascii": "Atenco",
    "admin_name": "México",
    "lat": "19.5167",
    "lng": "-98.9167",
    "id": "1484838122"
  },
  {
    "city": "Tecoanapa",
    "city_ascii": "Tecoanapa",
    "admin_name": "Guerrero",
    "lat": "16.8000",
    "lng": "-99.1500",
    "id": "1484394496"
  },
  {
    "city": "Acatlán de Pérez Figueroa",
    "city_ascii": "Acatlan de Perez Figueroa",
    "admin_name": "Oaxaca",
    "lat": "18.5333",
    "lng": "-96.6000",
    "id": "1484695178"
  },
  {
    "city": "Juventino Rosas",
    "city_ascii": "Juventino Rosas",
    "admin_name": "Guanajuato",
    "lat": "20.6500",
    "lng": "-101.0000",
    "id": "1484008596"
  },
  {
    "city": "Jocotepec",
    "city_ascii": "Jocotepec",
    "admin_name": "Jalisco",
    "lat": "20.2863",
    "lng": "-103.4304",
    "id": "1484245726"
  },
  {
    "city": "Coyuca de Catalán",
    "city_ascii": "Coyuca de Catalan",
    "admin_name": "Guerrero",
    "lat": "18.3256",
    "lng": "-100.6992",
    "id": "1484460732"
  },
  {
    "city": "Santa María Atzompa",
    "city_ascii": "Santa Maria Atzompa",
    "admin_name": "Oaxaca",
    "lat": "17.1014",
    "lng": "-96.7778",
    "id": "1484411990"
  },
  {
    "city": "Moroleón",
    "city_ascii": "Moroleon",
    "admin_name": "Guanajuato",
    "lat": "20.1333",
    "lng": "-101.2000",
    "id": "1484802402"
  },
  {
    "city": "San Luis Acatlán",
    "city_ascii": "San Luis Acatlan",
    "admin_name": "Guerrero",
    "lat": "16.5333",
    "lng": "-98.0500",
    "id": "1484556142"
  },
  {
    "city": "Coyotepec",
    "city_ascii": "Coyotepec",
    "admin_name": "México",
    "lat": "19.7500",
    "lng": "-99.1711",
    "id": "1484352296"
  },
  {
    "city": "Jáltipan de Morelos",
    "city_ascii": "Jaltipan de Morelos",
    "admin_name": "Veracruz",
    "lat": "17.9703",
    "lng": "-94.7144",
    "id": "1484054405"
  },
  {
    "city": "Tezoyuca",
    "city_ascii": "Tezoyuca",
    "admin_name": "México",
    "lat": "19.7500",
    "lng": "-99.1833",
    "id": "1484920679"
  },
  {
    "city": "Yajalón",
    "city_ascii": "Yajalon",
    "admin_name": "Chiapas",
    "lat": "17.1833",
    "lng": "-92.3167",
    "id": "1484860213"
  },
  {
    "city": "Camargo",
    "city_ascii": "Camargo",
    "admin_name": "Chihuahua",
    "lat": "27.6670",
    "lng": "-105.1670",
    "id": "1484013592"
  },
  {
    "city": "Cihuatlán",
    "city_ascii": "Cihuatlan",
    "admin_name": "Jalisco",
    "lat": "19.2500",
    "lng": "-104.5667",
    "id": "1484019808"
  },
  {
    "city": "Heroica Ciudad de Tlaxiaco",
    "city_ascii": "Heroica Ciudad de Tlaxiaco",
    "admin_name": "Oaxaca",
    "lat": "17.2077",
    "lng": "-97.6798",
    "id": "1484201826"
  },
  {
    "city": "Huejutla de Reyes",
    "city_ascii": "Huejutla de Reyes",
    "admin_name": "Hidalgo",
    "lat": "21.1333",
    "lng": "-98.4167",
    "id": "1484746079"
  },
  {
    "city": "Zimapan",
    "city_ascii": "Zimapan",
    "admin_name": "Hidalgo",
    "lat": "20.7333",
    "lng": "-99.3833",
    "id": "1484785009"
  },
  {
    "city": "Yecapixtla",
    "city_ascii": "Yecapixtla",
    "admin_name": "Morelos",
    "lat": "18.8833",
    "lng": "-98.8650",
    "id": "1484433908"
  },
  {
    "city": "Matías Romero",
    "city_ascii": "Matias Romero",
    "admin_name": "Oaxaca",
    "lat": "16.8769",
    "lng": "-95.0411",
    "id": "1484296757"
  },
  {
    "city": "Temascal",
    "city_ascii": "Temascal",
    "admin_name": "Oaxaca",
    "lat": "18.2394",
    "lng": "-96.4031",
    "id": "1484505986"
  },
  {
    "city": "Villa del Carbón",
    "city_ascii": "Villa del Carbon",
    "admin_name": "México",
    "lat": "19.7272",
    "lng": "-99.5417",
    "id": "1484004677"
  },
  {
    "city": "Apan",
    "city_ascii": "Apan",
    "admin_name": "Hidalgo",
    "lat": "19.7000",
    "lng": "-98.4333",
    "id": "1484086106"
  },
  {
    "city": "Playa Vicente",
    "city_ascii": "Playa Vicente",
    "admin_name": "Veracruz",
    "lat": "17.8333",
    "lng": "-95.8167",
    "id": "1484068720"
  },
  {
    "city": "Axochiapan",
    "city_ascii": "Axochiapan",
    "admin_name": "Morelos",
    "lat": "18.5000",
    "lng": "-98.7500",
    "id": "1484424671"
  },
  {
    "city": "Nueva Rosita",
    "city_ascii": "Nueva Rosita",
    "admin_name": "Coahuila",
    "lat": "27.9372",
    "lng": "-101.2172",
    "id": "1484540557"
  },
  {
    "city": "Ciudad Melchor Múzquiz",
    "city_ascii": "Ciudad Melchor Muzquiz",
    "admin_name": "Coahuila",
    "lat": "27.8667",
    "lng": "-101.5000",
    "id": "1484736113"
  },
  {
    "city": "Galeana",
    "city_ascii": "Galeana",
    "admin_name": "Nuevo León",
    "lat": "24.8333",
    "lng": "-100.0667",
    "id": "1484336701"
  },
  {
    "city": "Juan Rodríguez Clara",
    "city_ascii": "Juan Rodriguez Clara",
    "admin_name": "Veracruz",
    "lat": "18.0000",
    "lng": "-95.4000",
    "id": "1484000401"
  },
  {
    "city": "Empalme",
    "city_ascii": "Empalme",
    "admin_name": "Sonora",
    "lat": "27.9617",
    "lng": "-110.8125",
    "id": "1484366250"
  },
  {
    "city": "Zacatelco",
    "city_ascii": "Zacatelco",
    "admin_name": "Tlaxcala",
    "lat": "19.2167",
    "lng": "-98.2333",
    "id": "1484460521"
  },
  {
    "city": "Santa Clara del Cobre",
    "city_ascii": "Santa Clara del Cobre",
    "admin_name": "Michoacán",
    "lat": "19.4050",
    "lng": "-101.6380",
    "id": "1484589302"
  },
  {
    "city": "San Felipe Orizatlán",
    "city_ascii": "San Felipe Orizatlan",
    "admin_name": "Hidalgo",
    "lat": "21.1719",
    "lng": "-98.6064",
    "id": "1484942420"
  },
  {
    "city": "Xico",
    "city_ascii": "Xico",
    "admin_name": "Veracruz",
    "lat": "19.4170",
    "lng": "-97.0000",
    "id": "1484011085"
  },
  {
    "city": "Zacualtipán",
    "city_ascii": "Zacualtipan",
    "admin_name": "Hidalgo",
    "lat": "20.6500",
    "lng": "-98.6500",
    "id": "1484806928"
  },
  {
    "city": "Cananea",
    "city_ascii": "Cananea",
    "admin_name": "Sonora",
    "lat": "30.9819",
    "lng": "-110.3006",
    "id": "1484752107"
  },
  {
    "city": "Tlapa de Comonfort",
    "city_ascii": "Tlapa de Comonfort",
    "admin_name": "Guerrero",
    "lat": "17.5461",
    "lng": "-98.5764",
    "id": "1484110723"
  },
  {
    "city": "San Juan Cancuc",
    "city_ascii": "San Juan Cancuc",
    "admin_name": "Chiapas",
    "lat": "16.9333",
    "lng": "-92.3833",
    "id": "1484128452"
  },
  {
    "city": "Ameca",
    "city_ascii": "Ameca",
    "admin_name": "Jalisco",
    "lat": "20.5486",
    "lng": "-104.0431",
    "id": "1484716155"
  },
  {
    "city": "Tlalixcoyan",
    "city_ascii": "Tlalixcoyan",
    "admin_name": "Veracruz",
    "lat": "18.8031",
    "lng": "-96.0611",
    "id": "1484527678"
  },
  {
    "city": "Jalapa",
    "city_ascii": "Jalapa",
    "admin_name": "Tabasco",
    "lat": "17.7000",
    "lng": "-92.8000",
    "id": "1484336788"
  },
  {
    "city": "Mixquiahuala de Juarez",
    "city_ascii": "Mixquiahuala de Juarez",
    "admin_name": "Hidalgo",
    "lat": "20.2311",
    "lng": "-99.2131",
    "id": "1484223912"
  },
  {
    "city": "Melchor Ocampo",
    "city_ascii": "Melchor Ocampo",
    "admin_name": "México",
    "lat": "19.7083",
    "lng": "-99.1444",
    "id": "1484243108"
  },
  {
    "city": "Villaflores",
    "city_ascii": "Villaflores",
    "admin_name": "Chiapas",
    "lat": "16.2355",
    "lng": "-93.2677",
    "id": "1484602239"
  },
  {
    "city": "Tuxpan",
    "city_ascii": "Tuxpan",
    "admin_name": "Jalisco",
    "lat": "19.5539",
    "lng": "-103.3756",
    "id": "1484236445"
  },
  {
    "city": "Paracho de Verduzco",
    "city_ascii": "Paracho de Verduzco",
    "admin_name": "Michoacán",
    "lat": "19.6500",
    "lng": "-102.0667",
    "id": "1484536308"
  },
  {
    "city": "Progreso",
    "city_ascii": "Progreso",
    "admin_name": "Yucatán",
    "lat": "21.2800",
    "lng": "-89.6700",
    "id": "1484340626"
  },
  {
    "city": "Mariano Escobedo",
    "city_ascii": "Mariano Escobedo",
    "admin_name": "Veracruz",
    "lat": "18.9167",
    "lng": "-97.1333",
    "id": "1484215926"
  },
  {
    "city": "Salvatierra",
    "city_ascii": "Salvatierra",
    "admin_name": "Guanajuato",
    "lat": "20.2156",
    "lng": "-100.8961",
    "id": "1484878589"
  },
  {
    "city": "Ciudad Manuel Doblado",
    "city_ascii": "Ciudad Manuel Doblado",
    "admin_name": "Guanajuato",
    "lat": "20.7303",
    "lng": "-101.9533",
    "id": "1484254805"
  },
  {
    "city": "Sayula",
    "city_ascii": "Sayula",
    "admin_name": "Jalisco",
    "lat": "19.8667",
    "lng": "-103.6167",
    "id": "1484178547"
  },
  {
    "city": "Jaral del Progreso",
    "city_ascii": "Jaral del Progreso",
    "admin_name": "Guanajuato",
    "lat": "20.3667",
    "lng": "-101.0667",
    "id": "1484182390"
  },
  {
    "city": "Tomatlán",
    "city_ascii": "Tomatlan",
    "admin_name": "Jalisco",
    "lat": "19.9369",
    "lng": "-105.2500",
    "id": "1484507470"
  },
  {
    "city": "Coatepec Harinas",
    "city_ascii": "Coatepec Harinas",
    "admin_name": "México",
    "lat": "18.9000",
    "lng": "-99.7167",
    "id": "1484641903"
  },
  {
    "city": "Zacatepec",
    "city_ascii": "Zacatepec",
    "admin_name": "Morelos",
    "lat": "18.6833",
    "lng": "-99.1833",
    "id": "1484549065"
  },
  {
    "city": "Berriozábal",
    "city_ascii": "Berriozabal",
    "admin_name": "Chiapas",
    "lat": "16.8003",
    "lng": "-93.2733",
    "id": "1484051098"
  },
  {
    "city": "Miahuatlán de Porfirio Díaz",
    "city_ascii": "Miahuatlan de Porfirio Diaz",
    "admin_name": "Oaxaca",
    "lat": "16.3167",
    "lng": "-96.5833",
    "id": "1484776246"
  },
  {
    "city": "Tamuín",
    "city_ascii": "Tamuin",
    "admin_name": "San Luis Potosí",
    "lat": "22.0000",
    "lng": "-98.7833",
    "id": "1484269723"
  },
  {
    "city": "Tonalá",
    "city_ascii": "Tonala",
    "admin_name": "Chiapas",
    "lat": "16.0914",
    "lng": "-93.7518",
    "id": "1484944309"
  },
  {
    "city": "Ciudad de Allende",
    "city_ascii": "Ciudad de Allende",
    "admin_name": "Nuevo León",
    "lat": "25.2833",
    "lng": "-100.0167",
    "id": "1484216013"
  },
  {
    "city": "Tangancícuaro de Arista",
    "city_ascii": "Tangancicuaro de Arista",
    "admin_name": "Michoacán",
    "lat": "19.8870",
    "lng": "-102.2080",
    "id": "1484528763"
  },
  {
    "city": "Soteapan",
    "city_ascii": "Soteapan",
    "admin_name": "Veracruz",
    "lat": "18.2333",
    "lng": "-94.8667",
    "id": "1484716801"
  },
  {
    "city": "Río Grande",
    "city_ascii": "Rio Grande",
    "admin_name": "Zacatecas",
    "lat": "23.8225",
    "lng": "-103.0361",
    "id": "1484276798"
  },
  {
    "city": "Tenosique",
    "city_ascii": "Tenosique",
    "admin_name": "Tabasco",
    "lat": "17.4756",
    "lng": "-91.4225",
    "id": "1484303350"
  },
  {
    "city": "Ocuilan de Arteaga",
    "city_ascii": "Ocuilan de Arteaga",
    "admin_name": "México",
    "lat": "19.0000",
    "lng": "-99.4000",
    "id": "1484570544"
  },
  {
    "city": "Santa Ana Nextlalpan",
    "city_ascii": "Santa Ana Nextlalpan",
    "admin_name": "México",
    "lat": "19.7167",
    "lng": "-99.0667",
    "id": "1484696225"
  },
  {
    "city": "La Huacana",
    "city_ascii": "La Huacana",
    "admin_name": "Michoacán",
    "lat": "18.9625",
    "lng": "-101.8069",
    "id": "1484078900"
  },
  {
    "city": "Tepeji del Río de Ocampo",
    "city_ascii": "Tepeji del Rio de Ocampo",
    "admin_name": "Hidalgo",
    "lat": "19.9039",
    "lng": "-99.3414",
    "id": "1484352351"
  },
  {
    "city": "Acatlán de Osorio",
    "city_ascii": "Acatlan de Osorio",
    "admin_name": "Puebla",
    "lat": "18.2086",
    "lng": "-98.0575",
    "id": "1484340141"
  },
  {
    "city": "San Juan Evangelista",
    "city_ascii": "San Juan Evangelista",
    "admin_name": "Veracruz",
    "lat": "17.8833",
    "lng": "-95.1333",
    "id": "1484667360"
  },
  {
    "city": "Parras de la Fuente",
    "city_ascii": "Parras de la Fuente",
    "admin_name": "Coahuila",
    "lat": "25.4403",
    "lng": "-102.1792",
    "id": "1484273682"
  },
  {
    "city": "Zacatlán",
    "city_ascii": "Zacatlan",
    "admin_name": "Puebla",
    "lat": "19.9319",
    "lng": "-97.9600",
    "id": "1484132726"
  },
  {
    "city": "Zapotiltic",
    "city_ascii": "Zapotiltic",
    "admin_name": "Jalisco",
    "lat": "19.6270",
    "lng": "-103.4170",
    "id": "1484535008"
  },
  {
    "city": "Tlanchinol",
    "city_ascii": "Tlanchinol",
    "admin_name": "Hidalgo",
    "lat": "19.9892",
    "lng": "-98.6786",
    "id": "1484386874"
  },
  {
    "city": "Ixtapan de la Sal",
    "city_ascii": "Ixtapan de la Sal",
    "admin_name": "México",
    "lat": "18.8333",
    "lng": "-99.6833",
    "id": "1484821151"
  },
  {
    "city": "Santiago Juxtlahuaca",
    "city_ascii": "Santiago Juxtlahuaca",
    "admin_name": "Oaxaca",
    "lat": "17.3333",
    "lng": "-98.0167",
    "id": "1484380988"
  },
  {
    "city": "Paso de Ovejas",
    "city_ascii": "Paso de Ovejas",
    "admin_name": "Veracruz",
    "lat": "19.2850",
    "lng": "-96.4400",
    "id": "1484005936"
  },
  {
    "city": "Tulum",
    "city_ascii": "Tulum",
    "admin_name": "Quintana Roo",
    "lat": "20.2119",
    "lng": "-87.4658",
    "id": "1484002889"
  },
  {
    "city": "Calpulalpan",
    "city_ascii": "Calpulalpan",
    "admin_name": "Tlaxcala",
    "lat": "19.5869",
    "lng": "-98.5683",
    "id": "1484814346"
  },
  {
    "city": "Pánuco",
    "city_ascii": "Panuco",
    "admin_name": "Veracruz",
    "lat": "22.0500",
    "lng": "-98.1833",
    "id": "1484059135"
  },
  {
    "city": "Temascalapa",
    "city_ascii": "Temascalapa",
    "admin_name": "México",
    "lat": "19.8000",
    "lng": "-98.9000",
    "id": "1484792221"
  },
  {
    "city": "Villanueva",
    "city_ascii": "Villanueva",
    "admin_name": "Zacatecas",
    "lat": "22.3536",
    "lng": "-102.8831",
    "id": "1484244113"
  },
  {
    "city": "San Felipe",
    "city_ascii": "San Felipe",
    "admin_name": "Guanajuato",
    "lat": "21.4833",
    "lng": "-101.2167",
    "id": "1484279509"
  },
  {
    "city": "Ticul",
    "city_ascii": "Ticul",
    "admin_name": "Yucatán",
    "lat": "20.3953",
    "lng": "-89.5339",
    "id": "1484056090"
  },
  {
    "city": "Sayula de Alemán",
    "city_ascii": "Sayula de Aleman",
    "admin_name": "Veracruz",
    "lat": "17.8833",
    "lng": "-94.9500",
    "id": "1484073387"
  },
  {
    "city": "Putla Villa de Guerrero",
    "city_ascii": "Putla Villa de Guerrero",
    "admin_name": "Oaxaca",
    "lat": "17.0167",
    "lng": "-97.9167",
    "id": "1484503444"
  },
  {
    "city": "Nueva Italia de Ruiz",
    "city_ascii": "Nueva Italia de Ruiz",
    "admin_name": "Michoacán",
    "lat": "19.0194",
    "lng": "-102.1089",
    "id": "1484876293"
  },
  {
    "city": "Huixtla",
    "city_ascii": "Huixtla",
    "admin_name": "Chiapas",
    "lat": "15.1386",
    "lng": "-92.4647",
    "id": "1484012568"
  },
  {
    "city": "Ciudad Sabinas Hidalgo",
    "city_ascii": "Ciudad Sabinas Hidalgo",
    "admin_name": "Nuevo León",
    "lat": "26.5000",
    "lng": "-100.1833",
    "id": "1484159329"
  },
  {
    "city": "Atlautla",
    "city_ascii": "Atlautla",
    "admin_name": "México",
    "lat": "19.0279",
    "lng": "-98.7814",
    "id": "1484312852"
  },
  {
    "city": "Paso del Macho",
    "city_ascii": "Paso del Macho",
    "admin_name": "Veracruz",
    "lat": "18.9667",
    "lng": "-96.7167",
    "id": "1484203573"
  },
  {
    "city": "Turicato",
    "city_ascii": "Turicato",
    "admin_name": "Michoacán",
    "lat": "19.0500",
    "lng": "-101.4167",
    "id": "1484580353"
  },
  {
    "city": "El Oro de Hidalgo",
    "city_ascii": "El Oro de Hidalgo",
    "admin_name": "México",
    "lat": "19.8008",
    "lng": "-100.1314",
    "id": "1484677445"
  },
  {
    "city": "Chapa de Mota",
    "city_ascii": "Chapa de Mota",
    "admin_name": "México",
    "lat": "19.8144",
    "lng": "-99.5269",
    "id": "1484616953"
  },
  {
    "city": "Amatenango de la Frontera",
    "city_ascii": "Amatenango de la Frontera",
    "admin_name": "Chiapas",
    "lat": "15.5333",
    "lng": "-92.0833",
    "id": "1484343885"
  },
  {
    "city": "Amecameca de Juárez",
    "city_ascii": "Amecameca de Juarez",
    "admin_name": "México",
    "lat": "19.7500",
    "lng": "-99.1711",
    "id": "1484353804"
  },
  {
    "city": "Tecozautla",
    "city_ascii": "Tecozautla",
    "admin_name": "Hidalgo",
    "lat": "20.5333",
    "lng": "-99.6333",
    "id": "1484766704"
  },
  {
    "city": "Cuauhtémoc",
    "city_ascii": "Cuauhtemoc",
    "admin_name": "Colima",
    "lat": "19.3281",
    "lng": "-103.6028",
    "id": "1484009228"
  },
  {
    "city": "Tequila",
    "city_ascii": "Tequila",
    "admin_name": "Jalisco",
    "lat": "20.8828",
    "lng": "-103.8367",
    "id": "1484763049"
  },
  {
    "city": "Tancítaro",
    "city_ascii": "Tancitaro",
    "admin_name": "Michoacán",
    "lat": "19.3378",
    "lng": "-102.3625",
    "id": "1484944433"
  },
  {
    "city": "Atotonilco de Tula",
    "city_ascii": "Atotonilco de Tula",
    "admin_name": "Hidalgo",
    "lat": "20.0500",
    "lng": "-99.1833",
    "id": "1484176739"
  },
  {
    "city": "Rodolfo Sánchez Taboada",
    "city_ascii": "Rodolfo Sanchez Taboada",
    "admin_name": "Baja California",
    "lat": "31.7958",
    "lng": "-116.5911",
    "id": "1484409365"
  },
  {
    "city": "Escuintla",
    "city_ascii": "Escuintla",
    "admin_name": "Chiapas",
    "lat": "15.3333",
    "lng": "-92.6333",
    "id": "1484508510"
  },
  {
    "city": "Champotón",
    "city_ascii": "Champoton",
    "admin_name": "Campeche",
    "lat": "19.3500",
    "lng": "-90.7167",
    "id": "1484959684"
  },
  {
    "city": "Juanacatlán",
    "city_ascii": "Juanacatlan",
    "admin_name": "Jalisco",
    "lat": "20.5000",
    "lng": "-103.1667",
    "id": "1484068541"
  },
  {
    "city": "Capulhuac",
    "city_ascii": "Capulhuac",
    "admin_name": "México",
    "lat": "19.2000",
    "lng": "-99.4667",
    "id": "1484829703"
  },
  {
    "city": "Jonuta",
    "city_ascii": "Jonuta",
    "admin_name": "Tabasco",
    "lat": "18.0833",
    "lng": "-92.1333",
    "id": "1484712409"
  },
  {
    "city": "Escuinapa",
    "city_ascii": "Escuinapa",
    "admin_name": "Sinaloa",
    "lat": "22.8350",
    "lng": "-105.7780",
    "id": "1484295544"
  },
  {
    "city": "Tepetlaoxtoc",
    "city_ascii": "Tepetlaoxtoc",
    "admin_name": "México",
    "lat": "19.5731",
    "lng": "-98.8203",
    "id": "1484140193"
  },
  {
    "city": "Magdalena de Kino",
    "city_ascii": "Magdalena de Kino",
    "admin_name": "Sonora",
    "lat": "30.6167",
    "lng": "-111.0500",
    "id": "1484799240"
  },
  {
    "city": "Temascaltepec de González",
    "city_ascii": "Temascaltepec de Gonzalez",
    "admin_name": "México",
    "lat": "19.0433",
    "lng": "-100.0414",
    "id": "1484114407"
  },
  {
    "city": "Huatabampo",
    "city_ascii": "Huatabampo",
    "admin_name": "Sonora",
    "lat": "27.0500",
    "lng": "-109.4167",
    "id": "1484335657"
  },
  {
    "city": "San Salvador El Seco",
    "city_ascii": "San Salvador El Seco",
    "admin_name": "Puebla",
    "lat": "19.1333",
    "lng": "-97.6500",
    "id": "1484262709"
  },
  {
    "city": "Ometepec",
    "city_ascii": "Ometepec",
    "admin_name": "Guerrero",
    "lat": "16.6833",
    "lng": "-98.4167",
    "id": "1484936909"
  },
  {
    "city": "Nanchital de Lázaro Cárdenas del Río",
    "city_ascii": "Nanchital de Lazaro Cardenas del Rio",
    "admin_name": "Veracruz",
    "lat": "18.0667",
    "lng": "-94.4167",
    "id": "1484990539"
  },
  {
    "city": "Tequisquiapan",
    "city_ascii": "Tequisquiapan",
    "admin_name": "Querétaro",
    "lat": "20.5206",
    "lng": "-99.8958",
    "id": "1484303338"
  },
  {
    "city": "Villa Donato Guerra",
    "city_ascii": "Villa Donato Guerra",
    "admin_name": "México",
    "lat": "19.3083",
    "lng": "-100.1422",
    "id": "1484701900"
  },
  {
    "city": "Xalatlaco",
    "city_ascii": "Xalatlaco",
    "admin_name": "México",
    "lat": "19.1811",
    "lng": "-99.4164",
    "id": "1484277337"
  },
  {
    "city": "Escárcega",
    "city_ascii": "Escarcega",
    "admin_name": "Campeche",
    "lat": "18.6067",
    "lng": "-90.7344",
    "id": "1484800970"
  },
  {
    "city": "Juchitepec",
    "city_ascii": "Juchitepec",
    "admin_name": "México",
    "lat": "19.0997",
    "lng": "-98.8792",
    "id": "1484007934"
  },
  {
    "city": "San Rafael",
    "city_ascii": "San Rafael",
    "admin_name": "Veracruz",
    "lat": "20.1889",
    "lng": "-96.8658",
    "id": "1484480100"
  },
  {
    "city": "Cocula",
    "city_ascii": "Cocula",
    "admin_name": "Jalisco",
    "lat": "20.3900",
    "lng": "-103.8200",
    "id": "1484453255"
  },
  {
    "city": "Actopan",
    "city_ascii": "Actopan",
    "admin_name": "Hidalgo",
    "lat": "20.2681",
    "lng": "-98.9442",
    "id": "1484903562"
  },
  {
    "city": "San Fernando",
    "city_ascii": "San Fernando",
    "admin_name": "Tamaulipas",
    "lat": "24.8504",
    "lng": "-98.1600",
    "id": "1484830415"
  },
  {
    "city": "Ozumba",
    "city_ascii": "Ozumba",
    "admin_name": "México",
    "lat": "19.0392",
    "lng": "-98.7936",
    "id": "1484458348"
  },
  {
    "city": "Teapa",
    "city_ascii": "Teapa",
    "admin_name": "Tabasco",
    "lat": "17.5483",
    "lng": "-92.9530",
    "id": "1484729901"
  },
  {
    "city": "Reforma",
    "city_ascii": "Reforma",
    "admin_name": "Chiapas",
    "lat": "17.8658",
    "lng": "-93.1472",
    "id": "1484640217"
  },
  {
    "city": "Úrsulo Galván",
    "city_ascii": "Ursulo Galvan",
    "admin_name": "Veracruz",
    "lat": "19.4000",
    "lng": "-96.3000",
    "id": "1484748710"
  },
  {
    "city": "Abasolo",
    "city_ascii": "Abasolo",
    "admin_name": "Guanajuato",
    "lat": "20.4500",
    "lng": "-101.5170",
    "id": "1484064616"
  },
  {
    "city": "Las Rosas",
    "city_ascii": "Las Rosas",
    "admin_name": "Chiapas",
    "lat": "16.3667",
    "lng": "-92.3500",
    "id": "1484866090"
  },
  {
    "city": "Navolato",
    "city_ascii": "Navolato",
    "admin_name": "Sinaloa",
    "lat": "24.7656",
    "lng": "-107.7019",
    "id": "1484515879"
  },
  {
    "city": "San Salvador",
    "city_ascii": "San Salvador",
    "admin_name": "Hidalgo",
    "lat": "20.2833",
    "lng": "-99.0153",
    "id": "1484680072"
  },
  {
    "city": "Ciudad Ixtepec",
    "city_ascii": "Ciudad Ixtepec",
    "admin_name": "Oaxaca",
    "lat": "16.5628",
    "lng": "-95.1000",
    "id": "1484662903"
  },
  {
    "city": "Ciudad Sahagun",
    "city_ascii": "Ciudad Sahagun",
    "admin_name": "Hidalgo",
    "lat": "19.7714",
    "lng": "-98.5803",
    "id": "1484112463"
  },
  {
    "city": "Cuitzeo del Porvenir",
    "city_ascii": "Cuitzeo del Porvenir",
    "admin_name": "Michoacán",
    "lat": "19.9686",
    "lng": "-101.1394",
    "id": "1484718007"
  },
  {
    "city": "Zacoalco de Torres",
    "city_ascii": "Zacoalco de Torres",
    "admin_name": "Jalisco",
    "lat": "20.2333",
    "lng": "-103.5833",
    "id": "1484373793"
  },
  {
    "city": "Metepec",
    "city_ascii": "Metepec",
    "admin_name": "México",
    "lat": "19.2511",
    "lng": "-99.6047",
    "id": "1484782768"
  },
  {
    "city": "Tetela de Ocampo",
    "city_ascii": "Tetela de Ocampo",
    "admin_name": "Puebla",
    "lat": "19.8167",
    "lng": "-97.8000",
    "id": "1484794888"
  },
  {
    "city": "Xochistlahuaca",
    "city_ascii": "Xochistlahuaca",
    "admin_name": "Guerrero",
    "lat": "16.7914",
    "lng": "-98.2419",
    "id": "1484003499"
  },
  {
    "city": "Villa de Zaachila",
    "city_ascii": "Villa de Zaachila",
    "admin_name": "Oaxaca",
    "lat": "16.9508",
    "lng": "-96.7492",
    "id": "1484472329"
  },
  {
    "city": "San Felipe Jalapa de Díaz",
    "city_ascii": "San Felipe Jalapa de Diaz",
    "admin_name": "Oaxaca",
    "lat": "18.0667",
    "lng": "-96.5333",
    "id": "1484014091"
  },
  {
    "city": "Nochistlán de Mejía",
    "city_ascii": "Nochistlan de Mejia",
    "admin_name": "Zacatecas",
    "lat": "21.3642",
    "lng": "-102.8464",
    "id": "1484761642"
  },
  {
    "city": "Quiroga",
    "city_ascii": "Quiroga",
    "admin_name": "Michoacán",
    "lat": "19.6667",
    "lng": "-101.5333",
    "id": "1484553970"
  },
  {
    "city": "Villa Luvianos",
    "city_ascii": "Villa Luvianos",
    "admin_name": "México",
    "lat": "18.9200",
    "lng": "-100.2983",
    "id": "1484500757"
  },
  {
    "city": "Motozintla",
    "city_ascii": "Motozintla",
    "admin_name": "Chiapas",
    "lat": "15.3632",
    "lng": "-92.2477",
    "id": "1484046011"
  },
  {
    "city": "Tlalpujahua de Rayón",
    "city_ascii": "Tlalpujahua de Rayon",
    "admin_name": "Michoacán",
    "lat": "19.8050",
    "lng": "-100.1744",
    "id": "1484026388"
  },
  {
    "city": "Soledad de Doblado",
    "city_ascii": "Soledad de Doblado",
    "admin_name": "Veracruz",
    "lat": "19.0500",
    "lng": "-96.4167",
    "id": "1484007805"
  },
  {
    "city": "San Juan Guichicovi",
    "city_ascii": "San Juan Guichicovi",
    "admin_name": "Oaxaca",
    "lat": "16.9667",
    "lng": "-95.0833",
    "id": "1484056048"
  },
  {
    "city": "Contla",
    "city_ascii": "Contla",
    "admin_name": "Tlaxcala",
    "lat": "19.3333",
    "lng": "-98.1667",
    "id": "1484059318"
  },
  {
    "city": "Apaxco de Ocampo",
    "city_ascii": "Apaxco de Ocampo",
    "admin_name": "México",
    "lat": "19.9800",
    "lng": "-99.1500",
    "id": "1484505240"
  },
  {
    "city": "Los Reyes de Juárez",
    "city_ascii": "Los Reyes de Juarez",
    "admin_name": "Puebla",
    "lat": "18.9458",
    "lng": "-97.8058",
    "id": "1484937929"
  },
  {
    "city": "Tuxpan",
    "city_ascii": "Tuxpan",
    "admin_name": "Michoacán",
    "lat": "19.5661",
    "lng": "-100.4625",
    "id": "1484359180"
  },
  {
    "city": "Jalpan",
    "city_ascii": "Jalpan",
    "admin_name": "Querétaro",
    "lat": "21.2167",
    "lng": "-99.4725",
    "id": "1484214957"
  },
  {
    "city": "Castaños",
    "city_ascii": "Castanos",
    "admin_name": "Coahuila",
    "lat": "26.7833",
    "lng": "-101.4167",
    "id": "1484472740"
  },
  {
    "city": "Cuerámaro",
    "city_ascii": "Cueramaro",
    "admin_name": "Guanajuato",
    "lat": "20.6258",
    "lng": "-101.6739",
    "id": "1484743958"
  },
  {
    "city": "Tepehuacán de Guerrero",
    "city_ascii": "Tepehuacan de Guerrero",
    "admin_name": "Hidalgo",
    "lat": "21.0131",
    "lng": "-98.8442",
    "id": "1484592101"
  },
  {
    "city": "Nahuatzén",
    "city_ascii": "Nahuatzen",
    "admin_name": "Michoacán",
    "lat": "19.6536",
    "lng": "-101.9158",
    "id": "1484829020"
  },
  {
    "city": "San Agustín Tlaxiaca",
    "city_ascii": "San Agustin Tlaxiaca",
    "admin_name": "Hidalgo",
    "lat": "20.1144",
    "lng": "-98.8867",
    "id": "1484185265"
  },
  {
    "city": "Villagrán",
    "city_ascii": "Villagran",
    "admin_name": "Guanajuato",
    "lat": "20.5170",
    "lng": "-100.9830",
    "id": "1484237393"
  },
  {
    "city": "Amatepec",
    "city_ascii": "Amatepec",
    "admin_name": "México",
    "lat": "18.6500",
    "lng": "-100.1500",
    "id": "1484058749"
  },
  {
    "city": "Nava",
    "city_ascii": "Nava",
    "admin_name": "Coahuila",
    "lat": "28.4214",
    "lng": "-100.7675",
    "id": "1484120104"
  },
  {
    "city": "Atitalaquia",
    "city_ascii": "Atitalaquia",
    "admin_name": "Hidalgo",
    "lat": "20.0583",
    "lng": "-99.2208",
    "id": "1484827281"
  },
  {
    "city": "Acapetahua",
    "city_ascii": "Acapetahua",
    "admin_name": "Chiapas",
    "lat": "15.2333",
    "lng": "-92.7667",
    "id": "1484664781"
  },
  {
    "city": "Paracuaro",
    "city_ascii": "Paracuaro",
    "admin_name": "Michoacán",
    "lat": "19.1467",
    "lng": "-102.2194",
    "id": "1484022148"
  },
  {
    "city": "Tlaxcoapan",
    "city_ascii": "Tlaxcoapan",
    "admin_name": "Hidalgo",
    "lat": "20.0953",
    "lng": "-99.2200",
    "id": "1484883241"
  },
  {
    "city": "Miacatlán",
    "city_ascii": "Miacatlan",
    "admin_name": "Morelos",
    "lat": "18.7722",
    "lng": "-99.3547",
    "id": "1484216622"
  },
  {
    "city": "Cuajinicuilapa",
    "city_ascii": "Cuajinicuilapa",
    "admin_name": "Guerrero",
    "lat": "16.4717",
    "lng": "-98.4153",
    "id": "1484450188"
  },
  {
    "city": "Tecolutla",
    "city_ascii": "Tecolutla",
    "admin_name": "Veracruz",
    "lat": "20.4797",
    "lng": "-97.0100",
    "id": "1484719991"
  },
  {
    "city": "Jaltenco",
    "city_ascii": "Jaltenco",
    "admin_name": "México",
    "lat": "19.7511",
    "lng": "-99.0931",
    "id": "1484504076"
  },
  {
    "city": "Tehuipango",
    "city_ascii": "Tehuipango",
    "admin_name": "Veracruz",
    "lat": "18.5167",
    "lng": "-97.0500",
    "id": "1484975485"
  },
  {
    "city": "Santiago Papasquiaro",
    "city_ascii": "Santiago Papasquiaro",
    "admin_name": "Durango",
    "lat": "25.0439",
    "lng": "-105.4192",
    "id": "1484176278"
  },
  {
    "city": "Tuxpan",
    "city_ascii": "Tuxpan",
    "admin_name": "Nayarit",
    "lat": "21.8667",
    "lng": "-105.4500",
    "id": "1484274950"
  },
  {
    "city": "Huaquechula",
    "city_ascii": "Huaquechula",
    "admin_name": "Puebla",
    "lat": "18.7667",
    "lng": "-98.5500",
    "id": "1484461466"
  },
  {
    "city": "El Grullo",
    "city_ascii": "El Grullo",
    "admin_name": "Jalisco",
    "lat": "19.8000",
    "lng": "-104.2000",
    "id": "1484796823"
  },
  {
    "city": "Puerto Escondido",
    "city_ascii": "Puerto Escondido",
    "admin_name": "Oaxaca",
    "lat": "15.8619",
    "lng": "-97.0672",
    "id": "1484644846"
  },
  {
    "city": "Ciudad Altamirano",
    "city_ascii": "Ciudad Altamirano",
    "admin_name": "Guerrero",
    "lat": "18.3472",
    "lng": "-100.6531",
    "id": "1484274706"
  },
  {
    "city": "Tecax",
    "city_ascii": "Tecax",
    "admin_name": "Yucatán",
    "lat": "20.2019",
    "lng": "-89.2881",
    "id": "1484782521"
  },
  {
    "city": "Felipe Carrillo Puerto",
    "city_ascii": "Felipe Carrillo Puerto",
    "admin_name": "Quintana Roo",
    "lat": "19.5786",
    "lng": "-88.0453",
    "id": "1484914299"
  },
  {
    "city": "Arriaga",
    "city_ascii": "Arriaga",
    "admin_name": "Chiapas",
    "lat": "16.2361",
    "lng": "-93.8995",
    "id": "1484409481"
  },
  {
    "city": "Pinal de Amoles",
    "city_ascii": "Pinal de Amoles",
    "admin_name": "Querétaro",
    "lat": "21.1342",
    "lng": "-99.4586",
    "id": "1484630305"
  },
  {
    "city": "Acatlán",
    "city_ascii": "Acatlan",
    "admin_name": "Jalisco",
    "lat": "20.2333",
    "lng": "-103.5333",
    "id": "1484516807"
  },
  {
    "city": "Atlatlahucan",
    "city_ascii": "Atlatlahucan",
    "admin_name": "Morelos",
    "lat": "18.9350",
    "lng": "-98.9000",
    "id": "1484784884"
  },
  {
    "city": "Miahuatlán",
    "city_ascii": "Miahuatlan",
    "admin_name": "Puebla",
    "lat": "18.5667",
    "lng": "-97.4333",
    "id": "1484649521"
  },
  {
    "city": "Álamo",
    "city_ascii": "Alamo",
    "admin_name": "Veracruz",
    "lat": "20.9167",
    "lng": "-97.6750",
    "id": "1484161565"
  },
  {
    "city": "Santa María Tonameca",
    "city_ascii": "Santa Maria Tonameca",
    "admin_name": "Oaxaca",
    "lat": "15.7458",
    "lng": "-96.5472",
    "id": "1484998049"
  },
  {
    "city": "Sultepec",
    "city_ascii": "Sultepec",
    "admin_name": "México",
    "lat": "18.8667",
    "lng": "-99.9500",
    "id": "1484381977"
  },
  {
    "city": "Hunucmá",
    "city_ascii": "Hunucma",
    "admin_name": "Yucatán",
    "lat": "21.0153",
    "lng": "-89.8744",
    "id": "1484800428"
  },
  {
    "city": "Ixhuatlancillo",
    "city_ascii": "Ixhuatlancillo",
    "admin_name": "Veracruz",
    "lat": "18.9000",
    "lng": "-97.1500",
    "id": "1484287458"
  },
  {
    "city": "Jamay",
    "city_ascii": "Jamay",
    "admin_name": "Jalisco",
    "lat": "20.2900",
    "lng": "-102.7100",
    "id": "1484510036"
  },
  {
    "city": "Zumpango del Río",
    "city_ascii": "Zumpango del Rio",
    "admin_name": "Guerrero",
    "lat": "17.6500",
    "lng": "-99.5000",
    "id": "1484750477"
  },
  {
    "city": "Jiquílpan de Juárez",
    "city_ascii": "Jiquilpan de Juarez",
    "admin_name": "Michoacán",
    "lat": "19.5900",
    "lng": "-102.4300",
    "id": "1484915765"
  },
  {
    "city": "Carlos A. Carrillo",
    "city_ascii": "Carlos A. Carrillo",
    "admin_name": "Veracruz",
    "lat": "18.3748",
    "lng": "-95.7544",
    "id": "1484904757"
  },
  {
    "city": "Amatán",
    "city_ascii": "Amatan",
    "admin_name": "Chiapas",
    "lat": "17.3667",
    "lng": "-92.8167",
    "id": "1484881501"
  },
  {
    "city": "San Agustín Loxicha",
    "city_ascii": "San Agustin Loxicha",
    "admin_name": "Oaxaca",
    "lat": "16.0167",
    "lng": "-96.6167",
    "id": "1484509506"
  },
  {
    "city": "Cazones de Herrera",
    "city_ascii": "Cazones de Herrera",
    "admin_name": "Veracruz",
    "lat": "20.7044",
    "lng": "-97.3106",
    "id": "1484665627"
  },
  {
    "city": "Las Margaritas",
    "city_ascii": "Las Margaritas",
    "admin_name": "Chiapas",
    "lat": "16.3153",
    "lng": "-91.9817",
    "id": "1484007496"
  },
  {
    "city": "El Salto",
    "city_ascii": "El Salto",
    "admin_name": "Durango",
    "lat": "23.7823",
    "lng": "-105.3585",
    "id": "1484463833"
  },
  {
    "city": "Santa María Colotepec",
    "city_ascii": "Santa Maria Colotepec",
    "admin_name": "Oaxaca",
    "lat": "15.8833",
    "lng": "-96.9167",
    "id": "1484824159"
  },
  {
    "city": "Maxcanú",
    "city_ascii": "Maxcanu",
    "admin_name": "Yucatán",
    "lat": "20.5833",
    "lng": "-89.9833",
    "id": "1484052886"
  },
  {
    "city": "Manlio Fabio Altamirano",
    "city_ascii": "Manlio Fabio Altamirano",
    "admin_name": "Veracruz",
    "lat": "19.1003",
    "lng": "-96.3411",
    "id": "1484739619"
  },
  {
    "city": "Tantoyuca",
    "city_ascii": "Tantoyuca",
    "admin_name": "Veracruz",
    "lat": "21.3500",
    "lng": "-98.2333",
    "id": "1484205572"
  },
  {
    "city": "San Miguel Ocotenco",
    "city_ascii": "San Miguel Ocotenco",
    "admin_name": "Puebla",
    "lat": "19.0666",
    "lng": "-97.4525",
    "id": "1484616570"
  },
  {
    "city": "Ciudad Serdán",
    "city_ascii": "Ciudad Serdan",
    "admin_name": "Puebla",
    "lat": "18.9833",
    "lng": "-97.4500",
    "id": "1484943496"
  },
  {
    "city": "Atotonilco el Grande",
    "city_ascii": "Atotonilco el Grande",
    "admin_name": "Hidalgo",
    "lat": "20.6667",
    "lng": "-98.6667",
    "id": "1484578299"
  },
  {
    "city": "San Juan Otzolotepec",
    "city_ascii": "San Juan Otzolotepec",
    "admin_name": "Oaxaca",
    "lat": "17.2984",
    "lng": "-95.4918",
    "id": "1484001857"
  },
  {
    "city": "Ahualulco de Mercado",
    "city_ascii": "Ahualulco de Mercado",
    "admin_name": "Jalisco",
    "lat": "20.6167",
    "lng": "-103.8667",
    "id": "1484137273"
  },
  {
    "city": "Tecali",
    "city_ascii": "Tecali",
    "admin_name": "Puebla",
    "lat": "18.9000",
    "lng": "-97.9667",
    "id": "1484035847"
  },
  {
    "city": "San Martín Totolán",
    "city_ascii": "San Martin Totolan",
    "admin_name": "Michoacán",
    "lat": "19.9852",
    "lng": "-102.6802",
    "id": "1484775588"
  },
  {
    "city": "Cerro Azul",
    "city_ascii": "Cerro Azul",
    "admin_name": "Veracruz",
    "lat": "21.1920",
    "lng": "-97.7409",
    "id": "1484720981"
  },
  {
    "city": "General Pánfilo Natera",
    "city_ascii": "General Panfilo Natera",
    "admin_name": "Zacatecas",
    "lat": "22.6650",
    "lng": "-102.1097",
    "id": "1484662922"
  },
  {
    "city": "San Buenaventura",
    "city_ascii": "San Buenaventura",
    "admin_name": "Coahuila",
    "lat": "27.0625",
    "lng": "-101.5467",
    "id": "1484100040"
  },
  {
    "city": "La Higuerita",
    "city_ascii": "La Higuerita",
    "admin_name": "Jalisco",
    "lat": "19.4833",
    "lng": "-104.6500",
    "id": "1484769959"
  },
  {
    "city": "La Huerta",
    "city_ascii": "La Huerta",
    "admin_name": "Jalisco",
    "lat": "19.4844",
    "lng": "-104.6438",
    "id": "1484366583"
  },
  {
    "city": "Motul",
    "city_ascii": "Motul",
    "admin_name": "Yucatán",
    "lat": "21.1667",
    "lng": "-89.4667",
    "id": "1484505595"
  },
  {
    "city": "Tototlán",
    "city_ascii": "Tototlan",
    "admin_name": "Jalisco",
    "lat": "20.0833",
    "lng": "-102.6500",
    "id": "1484885208"
  },
  {
    "city": "Soledad Atzompa",
    "city_ascii": "Soledad Atzompa",
    "admin_name": "Veracruz",
    "lat": "18.7500",
    "lng": "-97.1500",
    "id": "1484642759"
  },
  {
    "city": "Tamiahua",
    "city_ascii": "Tamiahua",
    "admin_name": "Veracruz",
    "lat": "21.2788",
    "lng": "-97.4462",
    "id": "1484634319"
  },
  {
    "city": "Rafael Delgado",
    "city_ascii": "Rafael Delgado",
    "admin_name": "Veracruz",
    "lat": "18.8167",
    "lng": "-97.0667",
    "id": "1484016423"
  },
  {
    "city": "Oxkutzkab",
    "city_ascii": "Oxkutzkab",
    "admin_name": "Yucatán",
    "lat": "20.3056",
    "lng": "-89.4183",
    "id": "1484480343"
  },
  {
    "city": "Frontera",
    "city_ascii": "Frontera",
    "admin_name": "Tabasco",
    "lat": "18.5336",
    "lng": "-92.6469",
    "id": "1484000527"
  },
  {
    "city": "Malinalco",
    "city_ascii": "Malinalco",
    "admin_name": "México",
    "lat": "18.9483",
    "lng": "-99.4947",
    "id": "1484454332"
  },
  {
    "city": "Naolinco de Victoria",
    "city_ascii": "Naolinco de Victoria",
    "admin_name": "Veracruz",
    "lat": "19.6367",
    "lng": "-96.8525",
    "id": "1484476201"
  },
  {
    "city": "San Miguel de Papasquiaro",
    "city_ascii": "San Miguel de Papasquiaro",
    "admin_name": "Durango",
    "lat": "24.8304",
    "lng": "-105.3400",
    "id": "1484521716"
  },
  {
    "city": "Ojinaga",
    "city_ascii": "Ojinaga",
    "admin_name": "Chihuahua",
    "lat": "29.5644",
    "lng": "-104.4164",
    "id": "1484761843"
  },
  {
    "city": "Tequixquiac",
    "city_ascii": "Tequixquiac",
    "admin_name": "México",
    "lat": "19.9097",
    "lng": "-99.1417",
    "id": "1484908675"
  },
  {
    "city": "Yahualica de González Gallo",
    "city_ascii": "Yahualica de Gonzalez Gallo",
    "admin_name": "Jalisco",
    "lat": "21.1781",
    "lng": "-102.8860",
    "id": "1484271707"
  },
  {
    "city": "Meoqui",
    "city_ascii": "Meoqui",
    "admin_name": "Chihuahua",
    "lat": "28.2722",
    "lng": "-105.4819",
    "id": "1484867296"
  },
  {
    "city": "Huautla",
    "city_ascii": "Huautla",
    "admin_name": "Hidalgo",
    "lat": "21.0308",
    "lng": "-98.2850",
    "id": "1484208664"
  },
  {
    "city": "San Juan Cotzocón",
    "city_ascii": "San Juan Cotzocon",
    "admin_name": "Oaxaca",
    "lat": "17.1667",
    "lng": "-95.7833",
    "id": "1484942065"
  },
  {
    "city": "Emiliano Zapata",
    "city_ascii": "Emiliano Zapata",
    "admin_name": "Tabasco",
    "lat": "17.7446",
    "lng": "-91.7651",
    "id": "1484000334"
  },
  {
    "city": "Puente Nacional",
    "city_ascii": "Puente Nacional",
    "admin_name": "Veracruz",
    "lat": "19.3302",
    "lng": "-96.4837",
    "id": "1484974086"
  },
  {
    "city": "Acatlán",
    "city_ascii": "Acatlan",
    "admin_name": "Hidalgo",
    "lat": "20.1444",
    "lng": "-98.4383",
    "id": "1484652472"
  },
  {
    "city": "Yahualica",
    "city_ascii": "Yahualica",
    "admin_name": "Hidalgo",
    "lat": "20.9531",
    "lng": "-98.3800",
    "id": "1484980764"
  },
  {
    "city": "Huejúcar",
    "city_ascii": "Huejucar",
    "admin_name": "Jalisco",
    "lat": "22.3591",
    "lng": "-103.2108",
    "id": "1484409823"
  },
  {
    "city": "Ocatlán",
    "city_ascii": "Ocatlan",
    "admin_name": "Tlaxcala",
    "lat": "19.3167",
    "lng": "-98.2283",
    "id": "1484715262"
  },
  {
    "city": "Chalchihuitán",
    "city_ascii": "Chalchihuitan",
    "admin_name": "Chiapas",
    "lat": "17.0333",
    "lng": "-92.6167",
    "id": "1484099582"
  },
  {
    "city": "Axapusco",
    "city_ascii": "Axapusco",
    "admin_name": "México",
    "lat": "19.7194",
    "lng": "-98.7972",
    "id": "1484580584"
  },
  {
    "city": "Pueblo Juárez",
    "city_ascii": "Pueblo Juarez",
    "admin_name": "Chiapas",
    "lat": "17.7000",
    "lng": "-93.2000",
    "id": "1484543161"
  },
  {
    "city": "Charo",
    "city_ascii": "Charo",
    "admin_name": "Michoacán",
    "lat": "19.7500",
    "lng": "-101.0500",
    "id": "1484226531"
  },
  {
    "city": "Magdalena",
    "city_ascii": "Magdalena",
    "admin_name": "Jalisco",
    "lat": "20.9167",
    "lng": "-103.9500",
    "id": "1484476169"
  },
  {
    "city": "Comalapa",
    "city_ascii": "Comalapa",
    "admin_name": "Chiapas",
    "lat": "15.6500",
    "lng": "-92.1500",
    "id": "1484741837"
  },
  {
    "city": "Tixtla de Guerrero",
    "city_ascii": "Tixtla de Guerrero",
    "admin_name": "Guerrero",
    "lat": "17.5667",
    "lng": "-99.4000",
    "id": "1484176714"
  },
  {
    "city": "Sombrerete",
    "city_ascii": "Sombrerete",
    "admin_name": "Zacatecas",
    "lat": "23.6333",
    "lng": "-103.6397",
    "id": "1484007324"
  },
  {
    "city": "Ocotlán de Morelos",
    "city_ascii": "Ocotlan de Morelos",
    "admin_name": "Oaxaca",
    "lat": "16.7914",
    "lng": "-96.6750",
    "id": "1484002311"
  },
  {
    "city": "Tlaltenango de Sánchez Román",
    "city_ascii": "Tlaltenango de Sanchez Roman",
    "admin_name": "Zacatecas",
    "lat": "21.7815",
    "lng": "-103.3059",
    "id": "1484361545"
  },
  {
    "city": "Cuilapan de Guerrero",
    "city_ascii": "Cuilapan de Guerrero",
    "admin_name": "Oaxaca",
    "lat": "16.9972",
    "lng": "-96.7817",
    "id": "1484534441"
  },
  {
    "city": "Chapala",
    "city_ascii": "Chapala",
    "admin_name": "Jalisco",
    "lat": "20.2961",
    "lng": "-103.1911",
    "id": "1484011650"
  },
  {
    "city": "Acatic",
    "city_ascii": "Acatic",
    "admin_name": "Jalisco",
    "lat": "20.7803",
    "lng": "-102.9100",
    "id": "1484373854"
  },
  {
    "city": "San Martín de las Pirámides",
    "city_ascii": "San Martin de las Piramides",
    "admin_name": "México",
    "lat": "19.7333",
    "lng": "-98.8167",
    "id": "1484000182"
  },
  {
    "city": "Allende",
    "city_ascii": "Allende",
    "admin_name": "Coahuila",
    "lat": "28.3333",
    "lng": "-100.8333",
    "id": "1484737223"
  },
  {
    "city": "Fortín de las Flores",
    "city_ascii": "Fortin de las Flores",
    "admin_name": "Veracruz",
    "lat": "18.9000",
    "lng": "-97.0000",
    "id": "1484333240"
  },