[
  {
    "city": "Ashgabat",
    "city_ascii": "Ashgabat",
    "admin_name": "Aşgabat",
    "lat": "37.9375",
    "lng": "58.3800",
    "id": "1795049992"
  },
  {
    "city": "Türkmenabat",
    "city_ascii": "Turkmenabat",
    "admin_name": "Lebap",
    "lat": "39.0833",
    "lng": "63.5667",
    "id": "1795079064"
  },
  {
    "city": "Daşoguz",
    "city_ascii": "Dasoguz",
    "admin_name": "Daşoguz",
    "lat": "41.8333",
    "lng": "59.9667",
    "id": "1795167397"
  },
  {
    "city": "Balkanabat",
    "city_ascii": "Balkanabat",
    "admin_name": "Balkan",
    "lat": "39.5167",
    "lng": "54.3667",
    "id": "1795885709"
  },
  {
    "city": "Mary",
    "city_ascii": "Mary",
    "admin_name": "Mary",
    "lat": "37.6069",
    "lng": "61.8344",
    "id": "1795413265"
  },
  {
    "city": "Koytendag",
    "city_ascii": "Koytendag",
    "admin_name": "Lebap",
    "lat": "37.5000",
    "lng": "66.0000",
    "id": "1795859391"
  },
  {
    "city": "Atamyrat",
    "city_ascii": "Atamyrat",
    "admin_name": "Lebap",
    "lat": "37.8531",
    "lng": "65.2369",
    "id": "1795595010"
  },
  {
    "city": "Türkmenbaşy",
    "city_ascii": "Turkmenbasy",
    "admin_name": "Balkan",
    "lat": "40.0167",
    "lng": "52.9667",
    "id": "1795987646"
  },
  {
    "city": "Serdar",
    "city_ascii": "Serdar",
    "admin_name": "Balkan",
    "lat": "38.9833",
    "lng": "56.2833",
    "id": "1795429041"
  },
  {
    "city": "Bayramaly",
    "city_ascii": "Bayramaly",
    "admin_name": "Mary",
    "lat": "37.6167",
    "lng": "62.1500",
    "id": "1795017692"
  },
  {
    "city": "Tejen",
    "city_ascii": "Tejen",
    "admin_name": "Ahal",
    "lat": "37.3833",
    "lng": "60.5000",
    "id": "1795500486"
  },
  {
    "city": "Abadan",
    "city_ascii": "Abadan",
    "admin_name": "Ahal",
    "lat": "38.0517",
    "lng": "58.2100",
    "id": "1795394170"
  },
  {
    "city": "Kaka",
    "city_ascii": "Kaka",
    "admin_name": "Ahal",
    "lat": "37.3500",
    "lng": "59.6000",
    "id": "1795223342"
  },
  {
    "city": "Yolöten",
    "city_ascii": "Yoloten",
    "admin_name": "Mary",
    "lat": "37.3000",
    "lng": "62.3500",
    "id": "1795448254"
  },
  {
    "city": "Köneürgench",
    "city_ascii": "Koneurgench",
    "admin_name": "Daşoguz",
    "lat": "42.3333",
    "lng": "59.1500",
    "id": "1795588005"
  },
  {
    "city": "Gumdag",
    "city_ascii": "Gumdag",
    "admin_name": "Balkan",
    "lat": "39.2061",
    "lng": "54.5906",
    "id": "1795425588"
  },
  {
    "city": "Gyzylgaya",
    "city_ascii": "Gyzylgaya",
    "admin_name": "Balkan",
    "lat": "40.6219",
    "lng": "55.4656",
    "id": "1795017897"
  },
  {
    "city": "Änew",
    "city_ascii": "Anew",
    "admin_name": "Ahal",
    "lat": "37.8833",
    "lng": "58.5333",
    "id": "1795817680"
  },
  {
    "city": "Hazar",
    "city_ascii": "Hazar",
    "admin_name": "Balkan",
    "lat": "39.4450",
    "lng": "53.1150",
    "id": "1795996343"
  },
  {
    "city": "Bereket",
    "city_ascii": "Bereket",
    "admin_name": "Balkan",
    "lat": "39.2431",
    "lng": "55.5169",
    "id": "1795808351"
  },
  {
    "city": "Baharly",
    "city_ascii": "Baharly",
    "admin_name": "Ahal",
    "lat": "38.4303",
    "lng": "57.4369",
    "id": "1795475430"
  },
  {
    "city": "Gazojak",
    "city_ascii": "Gazojak",
    "admin_name": "Lebap",
    "lat": "41.1833",
    "lng": "61.4000",
    "id": "1795672645"
  },
  {
    "city": "Darganata",
    "city_ascii": "Darganata",
    "admin_name": "Lebap",
    "lat": "40.4833",
    "lng": "62.1667",
    "id": "1795420063"
  },
  {
    "city": "Hojambaz",
    "city_ascii": "Hojambaz",
    "admin_name": "Lebap",
    "lat": "38.1167",
    "lng": "65.0000",
    "id": "1795181508"
  },
  {
    "city": "Gökdepe",
    "city_ascii": "Gokdepe",
    "admin_name": "Ahal",
    "lat": "38.1578",
    "lng": "57.9664",
    "id": "1795372627"
  },
  {
    "city": "Seydi",
    "city_ascii": "Seydi",
    "admin_name": "Lebap",
    "lat": "39.4167",
    "lng": "62.9000",
    "id": "1795186775"
  },
  {
    "city": "Akdepe",
    "city_ascii": "Akdepe",
    "admin_name": "Daşoguz",
    "lat": "42.0500",
    "lng": "59.4000",
    "id": "1795536165"
  },
  {
    "city": "Farap",
    "city_ascii": "Farap",
    "admin_name": "Lebap",
    "lat": "39.1667",
    "lng": "63.6000",
    "id": "1795918715"
  },
  {
    "city": "Murgap",
    "city_ascii": "Murgap",
    "admin_name": "Mary",
    "lat": "37.4964",
    "lng": "61.9739",
    "id": "1795747825"
  },
  {
    "city": "Sarahs",
    "city_ascii": "Sarahs",
    "admin_name": "Ahal",
    "lat": "36.5333",
    "lng": "61.2167",
    "id": "1795405865"
  },
  {
    "city": "Çeleken",
    "city_ascii": "Celeken",
    "admin_name": "Balkan",
    "lat": "39.4362",
    "lng": "53.1226",
    "id": "1795554809"
  }
]